TIME,TASK,GROUP,CH_R,CH_P,CH_Y,CH_H,CH_T,ARMING,AUX2,AUX3,float0,float1,float2,float3,float4,float5,float6,float7,ldata0,ldata1,ldata2,ldata3,ldata4,ldata5,ldata6,ldata7,pidRoll,pidPitch,pidYaw,pidThrust,pidHover,HOVER_MINIMAL_HEIGHT,HOVER_MIN_DISTANCE,HOVER_MAX_DISTANCE,CRC
144510,HOVER,UPD,1500,1500,1500,0,1000,1000,1000,0,0.00,0.00,0.00,0.00,0.00,0.00,0.00,0.00,0,0,0,0,0,0,0,0,0.00,0.00,0.00,0.00,0.00,100,400,500,0000C359
144510,SDIST,UPD,0,0,0,22,0,0,0,0,16.62,12.47,450.00,429.22,29.88,22.41,450.00,412.65,431,12,0,0,420,22,0,0,0.00,0.00,0.00,0.00,0.00,0,0,0,00003394
144537,HOVER,UPD,1500,1500,1500,0,1000,1000,1000,0,0.00,0.00,0.00,0.00,0.00,0.00,0.00,0.00,0,0,0,0,0,0,0,0,0.00,0.00,0.00,0.00,0.00,100,400,500,0000C6CC
144548,RECV,WR,996,993,993,-1410,173,173,173,-1464,0.00,0.00,0.00,0.00,0.00,0.00,0.00,0.00,0,0,0,0,0,0,0,0,0.00,0.00,0.00,0.00,0.00,0,0,0,000055E0
144563,RECV,WR,996,993,993,192,173,173,173,-1464,0.00,0.00,0.00,0.00,0.00,0.00,0.00,0.00,0,0,0,0,0,0,0,0,0.00,0.00,0.00,0.00,0.00,0,0,0,000054DC
144574,HOVER,UPD,1500,1500,1500,0,1000,1000,1000,0,0.00,0.00,0.00,0.00,0.00,0.00,0.00,0.00,0,0,0,0,0,0,0,0,0.00,0.00,0.00,0.00,0.00,100,400,500,0000938F
144590,SDIST,UPD,0,0,0,22,0,0,0,0,16.61,12.46,450.00,429.24,29.55,22.16,450.00,413.07,430,12,0,0,420,22,0,0,0.00,0.00,0.00,0.00,0.00,0,0,0,0000F8C6
144601,RECV,WR,996,993,993,-1410,173,173,173,-1464,0.00,0.00,0.00,0.00,0.00,0.00,0.00,0.00,0,0,0,0,0,0,0,0,0.00,0.00,0.00,0.00,0.00,0,0,0,0000DF8C
144612,HOVER,UPD,1500,1500,1500,0,1000,1000,1000,0,0.00,0.00,0.00,0.00,0.00,0.00,0.00,0.00,0,0,0,0,0,0,0,0,0.00,0.00,0.00,0.00,0.00,100,400,500,0000EBAE
144623,RECV,WR,996,993,993,192,173,173,173,-1464,0.00,0.00,0.00,0.00,0.00,0.00,0.00,0.00,0,0,0,0,0,0,0,0,0.00,0.00,0.00,0.00,0.00,0,0,0,000079C0
144649,HOVER,UPD,1500,1500,1500,0,1000,1000,1000,0,0.00,0.00,0.00,0.00,0.00,0.00,0.00,0.00,0,0,0,0,0,0,0,0,0.00,0.00,0.00,0.00,0.00,100,400,500,0000CD7A
144670,HOVER,UPD,1500,1500,1500,0,1000,1000,1000,0,0.00,0.00,0.00,0.00,0.00,0.00,0.00,0.00,0,0,0,0,0,0,0,0,0.00,0.00,0.00,0.00,0.00,100,400,500,00000688
144681,RECV,WR,996,993,993,-1410,173,173,173,-1464,0.00,0.00,0.00,0.00,0.00,0.00,0.00,0.00,0,0,0,0,0,0,0,0,0.00,0.00,0.00,0.00,0.00,0,0,0,00001914
144696,SDIST,UPD,0,0,0,21,0,0,0,0,16.60,12.45,450.00,429.25,29.21,21.91,450.00,413.49,430,12,0,0,420,21,0,0,0.00,0.00,0.00,0.00,0.00,0,0,0,000012C2
144707,HOVER,UPD,1500,1500,1500,0,1000,1000,1000,0,0.00,0.00,0.00,0.00,0.00,0.00,0.00,0.00,0,0,0,0,0,0,0,0,0.00,0.00,0.00,0.00,0.00,100,400,500,000008D2
144708,RECV,WR,996,993,993,192,173,173,173,-1464,0.00,0.00,0.00,0.00,0.00,0.00,0.00,0.00,0,0,0,0,0,0,0,0,0.00,0.00,0.00,0.00,0.00,0,0,0,0000E9C2
144734,HOVER,UPD,1500,1500,1500,0,1000,1000,1000,0,0.00,0.00,0.00,0.00,0.00,0.00,0.00,0.00,0,0,0,0,0,0,0,0,0.00,0.00,0.00,0.00,0.00,100,400,500,00001511
144755,HOVER,UPD,1500,1500,1500,0,1000,1000,1000,0,0.00,0.00,0.00,0.00,0.00,0.00,0.00,0.00,0,0,0,0,0,0,0,0,0.00,0.00,0.00,0.00,0.00,100,400,500,0000A6CF
144766,RECV,WR,996,993,993,-1410,173,173,173,-1464,0.00,0.00,0.00,0.00,0.00,0.00,0.00,0.00,0,0,0,0,0,0,0,0,0.00,0.00,0.00,0.00,0.00,0,0,0,0000D586
144782,HOVER,UPD,1500,1500,1500,0,1000,1000,1000,0,0.00,0.00,0.00,0.00,0.00,0.00,0.00,0.00,0,0,0,0,0,0,0,0,0.00,0.00,0.00,0.00,0.00,100,400,500,0000FCAC
144783,RECV,WR,996,993,993,192,173,173,173,-1464,0.00,0.00,0.00,0.00,0.00,0.00,0.00,0.00,0,0,0,0,0,0,0,0,0.00,0.00,0.00,0.00,0.00,0,0,0,0000C98E
144783,SDIST,UPD,0,0,0,21,0,0,0,0,16.60,12.45,450.00,429.25,28.87,21.65,450.00,413.91,429,12,0,0,420,21,0,0,0.00,0.00,0.00,0.00,0.00,0,0,0,0000D5F7
144815,HOVER,UPD,1500,1500,1500,0,1000,1000,1000,0,0.00,0.00,0.00,0.00,0.00,0.00,0.00,0.00,0,0,0,0,0,0,0,0,0.00,0.00,0.00,0.00,0.00,100,400,500,0000F06E
144836,HOVER,UPD,1500,1500,1500,0,1000,1000,1000,0,0.00,0.00,0.00,0.00,0.00,0.00,0.00,0.00,0,0,0,0,0,0,0,0,0.00,0.00,0.00,0.00,0.00,100,400,500,0000235B
144836,RECV,WR,996,993,993,-1410,173,173,173,-1464,0.00,0.00,0.00,0.00,0.00,0.00,0.00,0.00,0,0,0,0,0,0,0,0,0.00,0.00,0.00,0.00,0.00,0,0,0,00005F1D
144864,RECV,WR,996,993,993,192,173,173,173,-1464,0.00,0.00,0.00,0.00,0.00,0.00,0.00,0.00,0,0,0,0,0,0,0,0,0.00,0.00,0.00,0.00,0.00,0,0,0,0000CD85
144875,HOVER,UPD,1500,1500,1500,0,1000,1000,1000,0,0.00,0.00,0.00,0.00,0.00,0.00,0.00,0.00,0,0,0,0,0,0,0,0,0.00,0.00,0.00,0.00,0.00,100,400,500,00007618
144875,SDIST,UPD,0,0,0,21,0,0,0,0,16.57,12.43,450.00,429.29,29.09,21.81,450.00,413.64,431,12,0,0,410,21,0,0,0.00,0.00,0.00,0.00,0.00,0,0,0,0000CB97
144902,HOVER,UPD,1500,1500,1500,0,1000,1000,1000,0,0.00,0.00,0.00,0.00,0.00,0.00,0.00,0.00,0,0,0,0,0,0,0,0,0.00,0.00,0.00,0.00,0.00,100,400,500,00007842
144913,RECV,WR,996,993,993,-1410,173,173,173,-1464,0.00,0.00,0.00,0.00,0.00,0.00,0.00,0.00,0,0,0,0,0,0,0,0,0.00,0.00,0.00,0.00,0.00,0,0,0,00005606
144928,RECV,WR,996,993,993,192,173,173,173,-1464,0.00,0.00,0.00,0.00,0.00,0.00,0.00,0.00,0,0,0,0,0,0,0,0,0.00,0.00,0.00,0.00,0.00,0,0,0,00002ADF
144939,HOVER,UPD,1500,1500,1500,0,1000,1000,1000,0,0.00,0.00,0.00,0.00,0.00,0.00,0.00,0.00,0,0,0,0,0,0,0,0,0.00,0.00,0.00,0.00,0.00,100,400,500,0000D8E0
144955,SDIST,UPD,0,0,0,21,0,0,0,0,16.54,12.41,450.00,429.32,28.74,21.55,450.00,414.08,431,12,0,0,420,21,0,0,0.00,0.00,0.00,0.00,0.00,0,0,0,0000541D
144966,RECV,WR,996,993,993,-1410,173,173,173,-1464,0.00,0.00,0.00,0.00,0.00,0.00,0.00,0.00,0,0,0,0,0,0,0,0,0.00,0.00,0.00,0.00,0.00,0,0,0,000064BB
144977,HOVER,UPD,1500,1500,1500,0,1000,1000,1000,0,0.00,0.00,0.00,0.00,0.00,0.00,0.00,0.00,0,0,0,0,0,0,0,0,0.00,0.00,0.00,0.00,0.00,100,400,500,0000D3CA
144988,RECV,WR,996,993,993,192,173,173,173,-1464,0.00,0.00,0.00,0.00,0.00,0.00,0.00,0.00,0,0,0,0,0,0,0,0,0.00,0.00,0.00,0.00,0.00,0,0,0,000022AF
145014,HOVER,UPD,1500,1500,1500,0,1000,1000,1000,0,0.00,0.00,0.00,0.00,0.00,0.00,0.00,0.00,0,0,0,0,0,0,0,0,0.00,0.00,0.00,0.00,0.00,100,400,500,00006B92
145035,HOVER,UPD,1500,1500,1500,0,1000,1000,1000,0,0.00,0.00,0.00,0.00,0.00,0.00,0.00,0.00,0,0,0,0,0,0,0,0,0.00,0.00,0.00,0.00,0.00,100,400,500,0000D3F7
145046,RECV,WR,996,993,993,-1410,173,173,173,-1464,0.00,0.00,0.00,0.00,0.00,0.00,0.00,0.00,0,0,0,0,0,0,0,0,0.00,0.00,0.00,0.00,0.00,0,0,0,0000456A
145062,HOVER,UPD,1500,1500,1500,0,1000,1000,1000,0,0.00,0.00,0.00,0.00,0.00,0.00,0.00,0.00,0,0,0,0,0,0,0,0,0.00,0.00,0.00,0.00,0.00,100,400,500,00009EE2
145063,RECV,WR,996,993,993,192,173,173,173,-1464,0.00,0.00,0.00,0.00,0.00,0.00,0.00,0.00,0,0,0,0,0,0,0,0,0.00,0.00,0.00,0.00,0.00,0,0,0,0000348B
145063,SDIST,UPD,0,0,0,21,0,0,0,0,16.53,12.40,450.00,429.34,28.97,21.73,450.00,413.79,430,12,0,0,410,21,0,0,0.00,0.00,0.00,0.00,0.00,0,0,0,00007FD5
145095,HOVER,UPD,1500,1500,1500,0,1000,1000,1000,0,0.00,0.00,0.00,0.00,0.00,0.00,0.00,0.00,0,0,0,0,0,0,0,0,0.00,0.00,0.00,0.00,0.00,100,400,500,0000494C
145116,HOVER,UPD,1500,1500,1500,0,1000,1000,1000,0,0.00,0.00,0.00,0.00,0.00,0.00,0.00,0.00,0,0,0,0,0,0,0,0,0.00,0.00,0.00,0.00,0.00,100,400,500,0000CE40
145116,RECV,WR,996,993,993,-1410,173,173,173,-1464,0.00,0.00,0.00,0.00,0.00,0.00,0.00,0.00,0,0,0,0,0,0,0,0,0.00,0.00,0.00,0.00,0.00,0,0,0,00007ECC
145144,RECV,WR,996,993,993,192,173,173,173,-1464,0.00,0.00,0.00,0.00,0.00,0.00,0.00,0.00,0,0,0,0,0,0,0,0,0.00,0.00,0.00,0.00,0.00,0,0,0,00000E92
145155,HOVER,UPD,1500,1500,1500,0,1000,1000,1000,0,0.00,0.00,0.00,0.00,0.00,0.00,0.00,0.00,0,0,0,0,0,0,0,0,0.00,0.00,0.00,0.00,0.00,100,400,500,00009B03
145155,SDIST,UPD,0,0,0,21,0,0,0,0,16.48,12.36,450.00,429.40,28.61,21.46,450.00,414.23,432,12,0,0,420,21,0,0,0.00,0.00,0.00,0.00,0.00,0,0,0,00001670
145182,HOVER,UPD,1500,1500,1500,0,1000,1000,1000,0,0.00,0.00,0.00,0.00,0.00,0.00,0.00,0.00,0,0,0,0,0,0,0,0,0.00,0.00,0.00,0.00,0.00,100,400,500,0000C160
145193,RECV,WR,996,993,993,-1410,173,173,173,-1464,0.00,0.00,0.00,0.00,0.00,0.00,0.00,0.00,0,0,0,0,0,0,0,0,0.00,0.00,0.00,0.00,0.00,0,0,0,0000C0D0
145208,RECV,WR,996,993,993,192,173,173,173,-1464,0.00,0.00,0.00,0.00,0.00,0.00,0.00,0.00,0,0,0,0,0,0,0,0,0.00,0.00,0.00,0.00,0.00,0,0,0,00008995
145219,HOVER,UPD,1500,1500,1500,0,1000,1000,1000,0,0.00,0.00,0.00,0.00,0.00,0.00,0.00,0.00,0,0,0,0,0,0,0,0,0.00,0.00,0.00,0.00,0.00,100,400,500,0000B8DE
145235,SDIST,UPD,0,0,0,21,0,0,0,0,16.49,12.37,450.00,429.39,28.27,21.20,450.00,414.67,429,12,0,0,420,21,0,0,0.00,0.00,0.00,0.00,0.00,0,0,0,00006813
145246,RECV,WR,996,993,993,-1410,173,173,173,-1464,0.00,0.00,0.00,0.00,0.00,0.00,0.00,0.00,0,0,0,0,0,0,0,0,0.00,0.00,0.00,0.00,0.00,0,0,0,0000C518
145257,HOVER,UPD,1500,1500,1500,0,1000,1000,1000,0,0.00,0.00,0.00,0.00,0.00,0.00,0.00,0.00,0,0,0,0,0,0,0,0,0.00,0.00,0.00,0.00,0.00,100,400,500,0000B3F4
145268,RECV,WR,996,993,993,192,173,173,173,-1464,0.00,0.00,0.00,0.00,0.00,0.00,0.00,0.00,0,0,0,0,0,0,0,0,0.00,0.00,0.00,0.00,0.00,0,0,0,00008E45
145294,HOVER,UPD,1500,1500,1500,0,1000,1000,1000,0,0.00,0.00,0.00,0.00,0.00,0.00,0.00,0.00,0,0,0,0,0,0,0,0,0.00,0.00,0.00,0.00,0.00,100,400,500,0000F1C1
145315,HOVER,UPD,1500,1500,1500,0,1000,1000,1000,0,0.00,0.00,0.00,0.00,0.00,0.00,0.00,0.00,0,0,0,0,0,0,0,0,0.00,0.00,0.00,0.00,0.00,100,400,500,00001D9D
145326,RECV,WR,996,993,993,-1410,173,173,173,-1464,0.00,0.00,0.00,0.00,0.00,0.00,0.00,0.00,0,0,0,0,0,0,0,0,0.00,0.00,0.00,0.00,0.00,0,0,0,0000D7CB
145341,SDIST,UPD,0,0,0,20,0,0,0,0,16.53,12.40,450.00,429.33,27.94,20.95,450.00,415.08,427,12,0,0,420,20,0,0,0.00,0.00,0.00,0.00,0.00,0,0,0,0000B279
145352,HOVER,UPD,1500,1500,1500,0,1000,1000,1000,0,0.00,0.00,0.00,0.00,0.00,0.00,0.00,0.00,0,0,0,0,0,0,0,0,0.00,0.00,0.00,0.00,0.00,100,400,500,00009E7E
145353,RECV,WR,996,993,993,192,173,173,173,-1464,0.00,0.00,0.00,0.00,0.00,0.00,0.00,0.00,0,0,0,0,0,0,0,0,0.00,0.00,0.00,0.00,0.00,0,0,0,0000EF00
145379,HOVER,UPD,1500,1500,1500,0,1000,1000,1000,0,0.00,0.00,0.00,0.00,0.00,0.00,0.00,0.00,0,0,0,0,0,0,0,0,0.00,0.00,0.00,0.00,0.00,100,400,500,0000F02A
145400,HOVER,UPD,1500,1500,1500,0,1000,1000,1000,0,0.00,0.00,0.00,0.00,0.00,0.00,0.00,0.00,0,0,0,0,0,0,0,0,0.00,0.00,0.00,0.00,0.00,100,400,500,000079AF
145411,RECV,WR,996,993,993,-1410,173,173,173,-1464,0.00,0.00,0.00,0.00,0.00,0.00,0.00,0.00,0,0,0,0,0,0,0,0,0.00,0.00,0.00,0.00,0.00,0,0,0,000036E9
145427,HOVER,UPD,1500,1500,1500,0,1000,1000,1000,0,0.00,0.00,0.00,0.00,0.00,0.00,0.00,0.00,0,0,0,0,0,0,0,0,0.00,0.00,0.00,0.00,0.00,100,400,500,00007C3A
145428,RECV,WR,996,993,993,192,173,173,173,-1464,0.00,0.00,0.00,0.00,0.00,0.00,0.00,0.00,0,0,0,0,0,0,0,0,0.00,0.00,0.00,0.00,0.00,0,0,0,0000DBDD
145428,SDIST,UPD,0,0,0,20,0,0,0,0,16.50,12.38,450.00,429.37,27.63,20.72,450.00,415.46,431,12,0,0,420,20,0,0,0.00,0.00,0.00,0.00,0.00,0,0,0,00001401
145460,HOVER,UPD,1500,1500,1500,0,1000,1000,1000,0,0.00,0.00,0.00,0.00,0.00,0.00,0.00,0.00,0,0,0,0,0,0,0,0,0.00,0.00,0.00,0.00,0.00,100,400,500,0000FFD9
145481,HOVER,UPD,1500,1500,1500,0,1000,1000,1000,0,0.00,0.00,0.00,0.00,0.00,0.00,0.00,0.00,0,0,0,0,0,0,0,0,0.00,0.00,0.00,0.00,0.00,100,400,500,00005B71
145481,RECV,WR,996,993,993,-1410,173,173,173,-1464,0.00,0.00,0.00,0.00,0.00,0.00,0.00,0.00,0,0,0,0,0,0,0,0,0.00,0.00,0.00,0.00,0.00,0,0,0,0000E8A2
145509,RECV,WR,996,993,993,192,173,173,173,-1464,0.00,0.00,0.00,0.00,0.00,0.00,0.00,0.00,0,0,0,0,0,0,0,0,0.00,0.00,0.00,0.00,0.00,0,0,0,00003CD9
145520,HOVER,UPD,1500,1500,1500,0,1000,1000,1000,0,0.00,0.00,0.00,0.00,0.00,0.00,0.00,0.00,0,0,0,0,0,0,0,0,0.00,0.00,0.00,0.00,0.00,100,400,500,00003AE0
145520,SDIST,UPD,0,0,0,20,0,0,0,0,16.53,12.40,450.00,429.34,27.34,20.50,450.00,415.83,428,12,0,0,420,20,0,0,0.00,0.00,0.00,0.00,0.00,0,0,0,00002FC0
145547,HOVER,UPD,1500,1500,1500,0,1000,1000,1000,0,0.00,0.00,0.00,0.00,0.00,0.00,0.00,0.00,0,0,0,0,0,0,0,0,0.00,0.00,0.00,0.00,0.00,100,400,500,000034CE
145558,RECV,WR,996,993,993,-1410,173,173,173,-1464,0.00,0.00,0.00,0.00,0.00,0.00,0.00,0.00,0,0,0,0,0,0,0,0,0.00,0.00,0.00,0.00,0.00,0,0,0,00003CF7
145573,RECV,WR,996,993,993,192,173,173,173,-1464,0.00,0.00,0.00,0.00,0.00,0.00,0.00,0.00,0,0,0,0,0,0,0,0,0.00,0.00,0.00,0.00,0.00,0,0,0,0000BD48
145584,HOVER,UPD,1500,1500,1500,0,1000,1000,1000,0,0.00,0.00,0.00,0.00,0.00,0.00,0.00,0.00,0,0,0,0,0,0,0,0,0.00,0.00,0.00,0.00,0.00,100,400,500,000076FB
145600,SDIST,UPD,0,0,0,20,0,0,0,0,16.52,12.39,450.00,429.36,27.07,20.31,450.00,416.16,430,12,0,0,420,20,0,0,0.00,0.00,0.00,0.00,0.00,0,0,0,00005918
145611,RECV,WR,996,993,993,-1410,173,173,173,-1464,0.00,0.00,0.00,0.00,0.00,0.00,0.00,0.00,0,0,0,0,0,0,0,0,0.00,0.00,0.00,0.00,0.00,0,0,0,0000B69B
145622,HOVER,UPD,1500,1500,1500,0,1000,1000,1000,0,0.00,0.00,0.00,0.00,0.00,0.00,0.00,0.00,0,0,0,0,0,0,0,0,0.00,0.00,0.00,0.00,0.00,100,400,500,00001217
145643,RECV,WR,996,993,993,192,173,173,173,-1464,0.00,0.00,0.00,0.00,0.00,0.00,0.00,0.00,0,0,0,0,0,0,0,0,0.00,0.00,0.00,0.00,0.00,0,0,0,000066C3
145659,HOVER,UPD,1500,1500,1500,0,1000,1000,1000,0,0.00,0.00,0.00,0.00,0.00,0.00,0.00,0.00,0,0,0,0,0,0,0,0,0.00,0.00,0.00,0.00,0.00,100,400,500,0000B90E
145680,HOVER,UPD,1500,1500,1500,0,1000,1000,1000,0,0.00,0.00,0.00,0.00,0.00,0.00,0.00,0.00,0,0,0,0,0,0,0,0,0.00,0.00,0.00,0.00,0.00,100,400,500,0000E3FC
145691,RECV,WR,996,993,993,-1410,173,173,173,-1464,0.00,0.00,0.00,0.00,0.00,0.00,0.00,0.00,0,0,0,0,0,0,0,0,0.00,0.00,0.00,0.00,0.00,0,0,0,00007003
145707,HOVER,UPD,1500,1500,1500,0,1000,1000,1000,0,0.00,0.00,0.00,0.00,0.00,0.00,0.00,0.00,0,0,0,0,0,0,0,0,0.00,0.00,0.00,0.00,0.00,100,400,500,0000B250
145708,RECV,WR,996,993,993,192,173,173,173,-1464,0.00,0.00,0.00,0.00,0.00,0.00,0.00,0.00,0,0,0,0,0,0,0,0,0.00,0.00,0.00,0.00,0.00,0,0,0,0000F111
145708,SDIST,UPD,0,0,0,20,0,0,0,0,16.52,12.39,450.00,429.35,26.83,20.12,450.00,416.46,429,12,0,0,420,20,0,0,0.00,0.00,0.00,0.00,0.00,0,0,0,00007829
145740,HOVER,UPD,1500,1500,1500,0,1000,1000,1000,0,0.00,0.00,0.00,0.00,0.00,0.00,0.00,0.00,0,0,0,0,0,0,0,0,0.00,0.00,0.00,0.00,0.00,100,400,500,000031B3
145761,HOVER,UPD,1500,1500,1500,0,1000,1000,1000,0,0.00,0.00,0.00,0.00,0.00,0.00,0.00,0.00,0,0,0,0,0,0,0,0,0.00,0.00,0.00,0.00,0.00,100,400,500,000089D6
145761,RECV,WR,996,993,993,-1410,173,173,173,-1464,0.00,0.00,0.00,0.00,0.00,0.00,0.00,0.00,0,0,0,0,0,0,0,0,0.00,0.00,0.00,0.00,0.00,0,0,0,0000BC9B
145789,HOVER,UPD,1500,1500,1500,0,1000,1000,1000,0,0.00,0.00,0.00,0.00,0.00,0.00,0.00,0.00,0,0,0,0,0,0,0,0,0.00,0.00,0.00,0.00,0.00,100,400,500,0000A5B7
145790,RECV,WR,996,993,993,192,173,173,173,-1464,0.00,0.00,0.00,0.00,0.00,0.00,0.00,0.00,0,0,0,0,0,0,0,0,0.00,0.00,0.00,0.00,0.00,0,0,0,0000C684
145790,SDIST,UPD,0,0,0,19,0,0,0,0,16.53,12.40,450.00,429.34,26.61,19.95,450.00,416.74,429,12,0,0,420,19,0,0,0.00,0.00,0.00,0.00,0.00,0,0,0,0000A0DD
145822,HOVER,UPD,1500,1500,1500,0,1000,1000,1000,0,0.00,0.00,0.00,0.00,0.00,0.00,0.00,0.00,0,0,0,0,0,0,0,0,0.00,0.00,0.00,0.00,0.00,100,400,500,0000818F
145843,HOVER,UPD,1500,1500,1500,0,1000,1000,1000,0,0.00,0.00,0.00,0.00,0.00,0.00,0.00,0.00,0,0,0,0,0,0,0,0,0.00,0.00,0.00,0.00,0.00,100,400,500,00003251
145843,RECV,WR,996,993,993,-1410,173,173,173,-1464,0.00,0.00,0.00,0.00,0.00,0.00,0.00,0.00,0,0,0,0,0,0,0,0,0.00,0.00,0.00,0.00,0.00,0,0,0,00001C64
145871,HOVER,UPD,1500,1500,1500,0,1000,1000,1000,0,0.00,0.00,0.00,0.00,0.00,0.00,0.00,0.00,0,0,0,0,0,0,0,0,0.00,0.00,0.00,0.00,0.00,100,400,500,00001A3A
145872,RECV,WR,996,993,993,192,173,173,173,-1464,0.00,0.00,0.00,0.00,0.00,0.00,0.00,0.00,0,0,0,0,0,0,0,0,0.00,0.00,0.00,0.00,0.00,0,0,0,0000F90C
145893,SDIST,UPD,0,0,0,19,0,0,0,0,16.48,12.36,450.00,429.40,26.40,19.80,450.00,417.00,432,12,0,0,420,19,0,0,0.00,0.00,0.00,0.00,0.00,0,0,0,00002F12
145905,HOVER,UPD,1500,1500,1500,0,1000,1000,1000,0,0.00,0.00,0.00,0.00,0.00,0.00,0.00,0.00,0,0,0,0,0,0,0,0,0.00,0.00,0.00,0.00,0.00,100,400,500,00004A98
145926,HOVER,UPD,1500,1500,1500,0,1000,1000,1000,0,0.00,0.00,0.00,0.00,0.00,0.00,0.00,0.00,0,0,0,0,0,0,0,0,0.00,0.00,0.00,0.00,0.00,100,400,500,000099AD
145926,RECV,WR,996,993,993,-1410,173,173,173,-1464,0.00,0.00,0.00,0.00,0.00,0.00,0.00,0.00,0,0,0,0,0,0,0,0,0.00,0.00,0.00,0.00,0.00,0,0,0,00007633
145954,RECV,WR,996,993,993,192,173,173,173,-1464,0.00,0.00,0.00,0.00,0.00,0.00,0.00,0.00,0,0,0,0,0,0,0,0,0.00,0.00,0.00,0.00,0.00,0,0,0,00006E80
145965,HOVER,UPD,1500,1500,1500,0,1000,1000,1000,0,0.00,0.00,0.00,0.00,0.00,0.00,0.00,0.00,0,0,0,0,0,0,0,0,0.00,0.00,0.00,0.00,0.00,100,400,500,0000CCEE
145980,SDIST,UPD,0,0,0,20,0,0,0,0,16.47,12.35,450.00,429.41,26.83,20.12,450.00,416.46,430,12,0,0,410,20,0,0,0.00,0.00,0.00,0.00,0.00,0,0,0,0000D1F6
145991,RECV,WR,996,993,993,-1410,173,173,173,-1464,0.00,0.00,0.00,0.00,0.00,0.00,0.00,0.00,0,0,0,0,0,0,0,0,0.00,0.00,0.00,0.00,0.00,0,0,0,00008107
146002,HOVER,UPD,1500,1500,1500,0,1000,1000,1000,0,0.00,0.00,0.00,0.00,0.00,0.00,0.00,0.00,0,0,0,0,0,0,0,0,0.00,0.00,0.00,0.00,0.00,100,400,500,0000C733
146013,RECV,WR,996,993,993,192,173,173,173,-1464,0.00,0.00,0.00,0.00,0.00,0.00,0.00,0.00,0,0,0,0,0,0,0,0,0.00,0.00,0.00,0.00,0.00,0,0,0,0000EB69
146039,HOVER,UPD,1500,1500,1500,0,1000,1000,1000,0,0.00,0.00,0.00,0.00,0.00,0.00,0.00,0.00,0,0,0,0,0,0,0,0,0.00,0.00,0.00,0.00,0.00,100,400,500,00006791
146059,SDIST,UPD,0,0,0,19,0,0,0,0,16.46,12.35,450.00,429.42,26.60,19.95,450.00,416.74,430,12,0,0,420,19,0,0,0.00,0.00,0.00,0.00,0.00,0,0,0,0000C437
146070,HOVER,UPD,1500,1500,1500,0,1000,1000,1000,0,0.00,0.00,0.00,0.00,0.00,0.00,0.00,0.00,0,0,0,0,0,0,0,0,0.00,0.00,0.00,0.00,0.00,100,400,500,0000E4E3
146070,RECV,WR,996,993,993,-1410,173,173,173,-1464,0.00,0.00,0.00,0.00,0.00,0.00,0.00,0.00,0,0,0,0,0,0,0,0,0.00,0.00,0.00,0.00,0.00,0,0,0,00005EB4
146096,RECV,WR,996,993,993,192,173,173,173,-1464,0.00,0.00,0.00,0.00,0.00,0.00,0.00,0.00,0,0,0,0,0,0,0,0,0.00,0.00,0.00,0.00,0.00,0,0,0,00002A35
146107,HOVER,UPD,1500,1500,1500,0,1000,1000,1000,0,0.00,0.00,0.00,0.00,0.00,0.00,0.00,0.00,0,0,0,0,0,0,0,0,0.00,0.00,0.00,0.00,0.00,100,400,500,0000EAB9
146128,HOVER,UPD,1500,1500,1500,0,1000,1000,1000,0,0.00,0.00,0.00,0.00,0.00,0.00,0.00,0.00,0,0,0,0,0,0,0,0,0.00,0.00,0.00,0.00,0.00,100,400,500,0000524D
146139,RECV,WR,996,993,993,-1410,173,173,173,-1464,0.00,0.00,0.00,0.00,0.00,0.00,0.00,0.00,0,0,0,0,0,0,0,0,0.00,0.00,0.00,0.00,0.00,0,0,0,000054AA
146155,HOVER,UPD,1500,1500,1500,0,1000,1000,1000,0,0.00,0.00,0.00,0.00,0.00,0.00,0.00,0.00,0,0,0,0,0,0,0,0,0.00,0.00,0.00,0.00,0.00,100,400,500,000044A4
146156,RECV,WR,996,993,993,192,173,173,173,-1464,0.00,0.00,0.00,0.00,0.00,0.00,0.00,0.00,0,0,0,0,0,0,0,0,0.00,0.00,0.00,0.00,0.00,0,0,0,00009DAB
146177,SDIST,UPD,0,0,0,19,0,0,0,0,16.56,12.42,450.00,429.30,26.40,19.80,450.00,417.00,424,12,0,0,420,19,0,0,0.00,0.00,0.00,0.00,0.00,0,0,0,000034D4
146188,HOVER,UPD,1500,1500,1500,0,1000,1000,1000,0,0.00,0.00,0.00,0.00,0.00,0.00,0.00,0.00,0,0,0,0,0,0,0,0,0.00,0.00,0.00,0.00,0.00,100,400,500,0000C8F6
146209,HOVER,UPD,1500,1500,1500,0,1000,1000,1000,0,0.00,0.00,0.00,0.00,0.00,0.00,0.00,0.00,0,0,0,0,0,0,0,0,0.00,0.00,0.00,0.00,0.00,100,400,500,0000A98F
146209,RECV,WR,996,993,993,-1410,173,173,173,-1464,0.00,0.00,0.00,0.00,0.00,0.00,0.00,0.00,0,0,0,0,0,0,0,0,0.00,0.00,0.00,0.00,0.00,0,0,0,0000BD94
146237,RECV,WR,996,993,993,192,173,173,173,-1464,0.00,0.00,0.00,0.00,0.00,0.00,0.00,0.00,0,0,0,0,0,0,0,0,0.00,0.00,0.00,0.00,0.00,0,0,0,0000EF8D
146248,HOVER,UPD,1500,1500,1500,0,1000,1000,1000,0,0.00,0.00,0.00,0.00,0.00,0.00,0.00,0.00,0,0,0,0,0,0,0,0,0.00,0.00,0.00,0.00,0.00,100,400,500,0000979C
146261,SDIST,UPD,0,0,0,19,0,0,0,0,16.83,12.62,450.00,428.96,26.21,19.66,450.00,417.24,415,12,0,0,420,19,0,0,0.00,0.00,0.00,0.00,0.00,0,0,0,0000851A
146272,RECV,WR,996,993,993,-1410,173,173,173,-1464,0.00,0.00,0.00,0.00,0.00,0.00,0.00,0.00,0,0,0,0,0,0,0,0,0.00,0.00,0.00,0.00,0.00,0,0,0,0000BE9B
146284,HOVER,UPD,1500,1500,1500,0,1000,1000,1000,0,0.00,0.00,0.00,0.00,0.00,0.00,0.00,0.00,0,0,0,0,0,0,0,0,0.00,0.00,0.00,0.00,0.00,100,400,500,0000E090
146295,RECV,WR,996,993,993,192,173,173,173,-1464,0.00,0.00,0.00,0.00,0.00,0.00,0.00,0.00,0,0,0,0,0,0,0,0,0.00,0.00,0.00,0.00,0.00,0,0,0,0000ACF6
146321,HOVER,UPD,1500,1500,1500,0,1000,1000,1000,0,0.00,0.00,0.00,0.00,0.00,0.00,0.00,0.00,0,0,0,0,0,0,0,0,0.00,0.00,0.00,0.00,0.00,100,400,500,000057A1
146341,SDIST,UPD,0,0,0,23,0,0,0,0,17.28,12.96,450.00,428.40,30.92,23.19,450.00,411.35,410,12,0,0,340,23,0,0,0.00,0.00,0.00,0.00,0.00,0,0,0,0000A3DE
146352,HOVER,UPD,1500,1500,1500,0,1000,1000,1000,0,0.00,0.00,0.00,0.00,0.00,0.00,0.00,0.00,0,0,0,0,0,0,0,0,0.00,0.00,0.00,0.00,0.00,100,400,500,000041D9
146352,RECV,WR,996,993,993,-1410,173,173,173,-1464,0.00,0.00,0.00,0.00,0.00,0.00,0.00,0.00,0,0,0,0,0,0,0,0,0.00,0.00,0.00,0.00,0.00,0,0,0,0000CF04
146378,RECV,WR,996,993,993,192,173,173,173,-1464,0.00,0.00,0.00,0.00,0.00,0.00,0.00,0.00,0,0,0,0,0,0,0,0,0.00,0.00,0.00,0.00,0.00,0,0,0,0000EE49
146389,HOVER,UPD,1500,1500,1500,0,1000,1000,1000,0,0.00,0.00,0.00,0.00,0.00,0.00,0.00,0.00,0,0,0,0,0,0,0,0,0.00,0.00,0.00,0.00,0.00,100,400,500,0000707B
146410,HOVER,UPD,1500,1500,1500,0,1000,1000,1000,0,0.00,0.00,0.00,0.00,0.00,0.00,0.00,0.00,0,0,0,0,0,0,0,0,0.00,0.00,0.00,0.00,0.00,100,400,500,000068FE
146421,RECV,WR,996,993,993,-1410,173,173,173,-1464,0.00,0.00,0.00,0.00,0.00,0.00,0.00,0.00,0,0,0,0,0,0,0,0,0.00,0.00,0.00,0.00,0.00,0,0,0,00008DD0
146437,HOVER,UPD,1500,1500,1500,0,1000,1000,1000,0,0.00,0.00,0.00,0.00,0.00,0.00,0.00,0.00,0,0,0,0,0,0,0,0,0.00,0.00,0.00,0.00,0.00,100,400,500,00006D6B
146438,RECV,WR,996,993,993,192,173,173,173,-1464,0.00,0.00,0.00,0.00,0.00,0.00,0.00,0.00,0,0,0,0,0,0,0,0,0.00,0.00,0.00,0.00,0.00,0,0,0,000003EF
146438,SDIST,UPD,0,0,0,34,0,0,0,0,17.93,13.45,450.00,427.59,45.38,34.04,450.00,393.27,408,13,0,0,300,34,0,0,0.00,0.00,0.00,0.00,0.00,0,0,0,00008A88
146470,HOVER,UPD,1500,1500,1500,0,1000,1000,1000,0,0.00,0.00,0.00,0.00,0.00,0.00,0.00,0.00,0,0,0,0,0,0,0,0,0.00,0.00,0.00,0.00,0.00,100,400,500,0000EE88
146491,HOVER,UPD,1500,1500,1500,0,1000,1000,1000,0,0.00,0.00,0.00,0.00,0.00,0.00,0.00,0.00,0,0,0,0,0,0,0,0,0.00,0.00,0.00,0.00,0.00,100,400,500,00004A20
146491,RECV,WR,996,993,993,-1410,173,173,173,-1464,0.00,0.00,0.00,0.00,0.00,0.00,0.00,0.00,0,0,0,0,0,0,0,0,0.00,0.00,0.00,0.00,0.00,0,0,0,0000623D
146519,RECV,WR,996,993,993,192,173,173,173,-1464,0.00,0.00,0.00,0.00,0.00,0.00,0.00,0.00,0,0,0,0,0,0,0,0,0.00,0.00,0.00,0.00,0.00,0,0,0,0000E4EB
146530,HOVER,UPD,1500,1500,1500,0,1000,1000,1000,0,0.00,0.00,0.00,0.00,0.00,0.00,0.00,0.00,0,0,0,0,0,0,0,0,0.00,0.00,0.00,0.00,0.00,100,400,500,00002BB1
146530,SDIST,UPD,0,0,0,57,0,0,0,0,18.50,13.88,450.00,426.87,76.54,57.41,450.00,354.32,414,13,0,0,280,57,0,0,0.00,0.00,0.00,0.00,0.00,0,0,0,00004EBC
146557,HOVER,UPD,1500,1500,1500,0,1000,1000,1000,0,0.00,0.00,0.00,0.00,0.00,0.00,0.00,0.00,0,0,0,0,0,0,0,0,0.00,0.00,0.00,0.00,0.00,100,400,500,0000259F
146568,RECV,WR,996,993,993,-1410,173,173,173,-1464,0.00,0.00,0.00,0.00,0.00,0.00,0.00,0.00,0,0,0,0,0,0,0,0,0.00,0.00,0.00,0.00,0.00,0,0,0,000087CE
146583,RECV,WR,996,993,993,192,173,173,173,-1464,0.00,0.00,0.00,0.00,0.00,0.00,0.00,0.00,0,0,0,0,0,0,0,0,0.00,0.00,0.00,0.00,0.00,0,0,0,00009875
146594,HOVER,UPD,1500,1500,1500,0,1000,1000,1000,0,0.00,0.00,0.00,0.00,0.00,0.00,0.00,0.00,0,0,0,0,0,0,0,0,0.00,0.00,0.00,0.00,0.00,100,400,500,000067AA
146610,SDIST,UPD,0,0,0,75,0,0,0,0,18.90,14.17,450.00,426.38,100.00,75.00,450.00,304.43,419,14,0,0,260,75,0,0,0.00,0.00,0.00,0.00,0.00,0,0,0,00002C26
146621,RECV,WR,996,993,993,-1410,173,173,173,-1464,0.00,0.00,0.00,0.00,0.00,0.00,0.00,0.00,0,0,0,0,0,0,0,0,0.00,0.00,0.00,0.00,0.00,0,0,0,00000DA2
146632,HOVER,UPD,1500,1500,1500,0,1000,1000,1000,0,0.00,0.00,0.00,0.00,0.00,0.00,0.00,0.00,0,0,0,0,0,0,0,0,0.00,0.00,0.00,0.00,0.00,100,400,500,00000346
146653,RECV,WR,996,993,993,192,173,173,173,-1464,0.00,0.00,0.00,0.00,0.00,0.00,0.00,0.00,0,0,0,0,0,0,0,0,0.00,0.00,0.00,0.00,0.00,0,0,0,0000BEF1
146669,HOVER,UPD,1500,1500,1500,0,1000,1000,1000,0,0.00,0.00,0.00,0.00,0.00,0.00,0.00,0.00,0,0,0,0,0,0,0,0,0.00,0.00,0.00,0.00,0.00,100,400,500,00002592
146690,HOVER,UPD,1500,1500,1500,0,1000,1000,1000,0,0.00,0.00,0.00,0.00,0.00,0.00,0.00,0.00,0,0,0,0,0,0,0,0,0.00,0.00,0.00,0.00,0.00,100,400,500,0000F2AD
146701,RECV,WR,996,993,993,-1410,173,173,173,-1464,0.00,0.00,0.00,0.00,0.00,0.00,0.00,0.00,0,0,0,0,0,0,0,0,0.00,0.00,0.00,0.00,0.00,0,0,0,00007C3D
146717,HOVER,UPD,1500,1500,1500,0,1000,1000,1000,0,0.00,0.00,0.00,0.00,0.00,0.00,0.00,0.00,0,0,0,0,0,0,0,0,0.00,0.00,0.00,0.00,0.00,100,400,500,0000A301
146718,RECV,WR,996,993,993,192,173,173,173,-1464,0.00,0.00,0.00,0.00,0.00,0.00,0.00,0.00,0,0,0,0,0,0,0,0,0.00,0.00,0.00,0.00,0.00,0,0,0,00002923
146718,SDIST,UPD,0,0,0,75,0,0,0,0,19.68,14.76,450.00,425.40,100.00,75.00,450.00,289.67,412,14,0,0,280,75,0,0,0.00,0.00,0.00,0.00,0.00,0,0,0,00003432
146750,HOVER,UPD,1500,1500,1500,0,1000,1000,1000,0,0.00,0.00,0.00,0.00,0.00,0.00,0.00,0.00,0,0,0,0,0,0,0,0,0.00,0.00,0.00,0.00,0.00,100,400,500,000020E2
146771,HOVER,UPD,1500,1500,1500,0,1000,1000,1000,0,0.00,0.00,0.00,0.00,0.00,0.00,0.00,0.00,0,0,0,0,0,0,0,0,0.00,0.00,0.00,0.00,0.00,100,400,500,00009887
146771,RECV,WR,996,993,993,-1410,173,173,173,-1464,0.00,0.00,0.00,0.00,0.00,0.00,0.00,0.00,0,0,0,0,0,0,0,0,0.00,0.00,0.00,0.00,0.00,0,0,0,00003604
146799,RECV,WR,996,993,993,192,173,173,173,-1464,0.00,0.00,0.00,0.00,0.00,0.00,0.00,0.00,0,0,0,0,0,0,0,0,0.00,0.00,0.00,0.00,0.00,0,0,0,00007E69
146810,HOVER,UPD,1500,1500,1500,0,1000,1000,1000,0,0.00,0.00,0.00,0.00,0.00,0.00,0.00,0.00,0,0,0,0,0,0,0,0,0.00,0.00,0.00,0.00,0.00,100,400,500,00007643
146810,SDIST,UPD,0,0,0,75,0,0,0,0,20.80,15.60,450.00,424.01,100.00,75.00,450.00,304.03,408,15,0,0,320,75,0,0,0.00,0.00,0.00,0.00,0.00,0,0,0,00000AB0
146837,HOVER,UPD,1500,1500,1500,0,1000,1000,1000,0,0.00,0.00,0.00,0.00,0.00,0.00,0.00,0.00,0,0,0,0,0,0,0,0,0.00,0.00,0.00,0.00,0.00,100,400,500,000073D6
146848,RECV,WR,996,993,993,-1410,173,173,173,-1464,0.00,0.00,0.00,0.00,0.00,0.00,0.00,0.00,0,0,0,0,0,0,0,0,0.00,0.00,0.00,0.00,0.00,0,0,0,0000C71E
146863,RECV,WR,996,993,993,192,173,173,173,-1464,0.00,0.00,0.00,0.00,0.00,0.00,0.00,0.00,0,0,0,0,0,0,0,0,0.00,0.00,0.00,0.00,0.00,0,0,0,00008CAB
146874,HOVER,UPD,1500,1500,1500,0,1000,1000,1000,0,0.00,0.00,0.00,0.00,0.00,0.00,0.00,0.00,0,0,0,0,0,0,0,0,0.00,0.00,0.00,0.00,0.00,100,400,500,00002695
146890,SDIST,UPD,0,0,0,75,0,0,0,0,22.28,16.71,450.00,422.15,100.00,75.00,450.00,310.93,405,16,0,0,320,75,0,0,0.00,0.00,0.00,0.00,0.00,0,0,0,00007C2B
146901,RECV,WR,996,993,993,-1410,173,173,173,-1464,0.00,0.00,0.00,0.00,0.00,0.00,0.00,0.00,0,0,0,0,0,0,0,0,0.00,0.00,0.00,0.00,0.00,0,0,0,0000CD00
146912,HOVER,UPD,1500,1500,1500,0,1000,1000,1000,0,0.00,0.00,0.00,0.00,0.00,0.00,0.00,0.00,0,0,0,0,0,0,0,0,0.00,0.00,0.00,0.00,0.00,100,400,500,0000D391
146933,RECV,WR,996,993,993,192,173,173,173,-1464,0.00,0.00,0.00,0.00,0.00,0.00,0.00,0.00,0,0,0,0,0,0,0,0,0.00,0.00,0.00,0.00,0.00,0,0,0,000030AD
146949,HOVER,UPD,1500,1500,1500,0,1000,1000,1000,0,0.00,0.00,0.00,0.00,0.00,0.00,0.00,0.00,0,0,0,0,0,0,0,0,0.00,0.00,0.00,0.00,0.00,100,400,500,0000F545
146970,HOVER,UPD,1500,1500,1500,0,1000,1000,1000,0,0.00,0.00,0.00,0.00,0.00,0.00,0.00,0.00,0,0,0,0,0,0,0,0,0.00,0.00,0.00,0.00,0.00,100,400,500,00003EB7
146981,RECV,WR,996,993,993,-1410,173,173,173,-1464,0.00,0.00,0.00,0.00,0.00,0.00,0.00,0.00,0,0,0,0,0,0,0,0,0.00,0.00,0.00,0.00,0.00,0,0,0,00000B98
146997,HOVER,UPD,1500,1500,1500,0,1000,1000,1000,0,0.00,0.00,0.00,0.00,0.00,0.00,0.00,0.00,0,0,0,0,0,0,0,0,0.00,0.00,0.00,0.00,0.00,100,400,500,000027EF
146998,RECV,WR,996,993,993,192,173,173,173,-1464,0.00,0.00,0.00,0.00,0.00,0.00,0.00,0.00,0,0,0,0,0,0,0,0,0.00,0.00,0.00,0.00,0.00,0,0,0,0000E24E
146998,SDIST,UPD,0,0,0,75,0,0,0,0,23.44,17.58,450.00,420.71,100.00,75.00,450.00,306.96,410,17,0,0,300,75,0,0,0.00,0.00,0.00,0.00,0.00,0,0,0,0000E7AC
147030,HOVER,UPD,1500,1500,1500,0,1000,1000,1000,0,0.00,0.00,0.00,0.00,0.00,0.00,0.00,0.00,0,0,0,0,0,0,0,0,0.00,0.00,0.00,0.00,0.00,100,400,500,000055DA
147051,HOVER,UPD,1500,1500,1500,0,1000,1000,1000,0,0.00,0.00,0.00,0.00,0.00,0.00,0.00,0.00,0,0,0,0,0,0,0,0,0.00,0.00,0.00,0.00,0.00,100,400,500,0000E604
147051,RECV,WR,996,993,993,-1410,173,173,173,-1464,0.00,0.00,0.00,0.00,0.00,0.00,0.00,0.00,0,0,0,0,0,0,0,0,0.00,0.00,0.00,0.00,0.00,0,0,0,0000A6E8
147079,RECV,WR,996,993,993,192,173,173,173,-1464,0.00,0.00,0.00,0.00,0.00,0.00,0.00,0.00,0,0,0,0,0,0,0,0,0.00,0.00,0.00,0.00,0.00,0,0,0,0000836C
147090,HOVER,UPD,1500,1500,1500,0,1000,1000,1000,0,0.00,0.00,0.00,0.00,0.00,0.00,0.00,0.00,0,0,0,0,0,0,0,0,0.00,0.00,0.00,0.00,0.00,100,400,500,0000CF61
147090,SDIST,UPD,0,0,0,75,0,0,0,0,24.64,18.48,450.00,419.20,100.00,75.00,450.00,292.56,409,18,0,0,260,75,0,0,0.00,0.00,0.00,0.00,0.00,0,0,0,0000E379
147117,HOVER,UPD,1500,1500,1500,0,1000,1000,1000,0,0.00,0.00,0.00,0.00,0.00,0.00,0.00,0.00,0,0,0,0,0,0,0,0,0.00,0.00,0.00,0.00,0.00,100,400,500,00009ECD
147128,RECV,WR,996,993,993,-1410,173,173,173,-1464,0.00,0.00,0.00,0.00,0.00,0.00,0.00,0.00,0,0,0,0,0,0,0,0,0.00,0.00,0.00,0.00,0.00,0,0,0,00008583
147143,RECV,WR,996,993,993,192,173,173,173,-1464,0.00,0.00,0.00,0.00,0.00,0.00,0.00,0.00,0,0,0,0,0,0,0,0,0.00,0.00,0.00,0.00,0.00,0,0,0,00004FBC
147154,HOVER,UPD,1500,1500,1500,0,1000,1000,1000,0,0.00,0.00,0.00,0.00,0.00,0.00,0.00,0.00,0,0,0,0,0,0,0,0,0.00,0.00,0.00,0.00,0.00,100,400,500,0000CB8E
147170,SDIST,UPD,0,0,0,75,0,0,0,0,26.64,19.98,450.00,416.71,100.00,75.00,450.00,272.95,401,19,0,0,240,75,0,0,0.00,0.00,0.00,0.00,0.00,0,0,0,0000A9E7
147181,RECV,WR,996,993,993,-1410,173,173,173,-1464,0.00,0.00,0.00,0.00,0.00,0.00,0.00,0.00,0,0,0,0,0,0,0,0,0.00,0.00,0.00,0.00,0.00,0,0,0,00005BD6
147192,HOVER,UPD,1500,1500,1500,0,1000,1000,1000,0,0.00,0.00,0.00,0.00,0.00,0.00,0.00,0.00,0,0,0,0,0,0,0,0,0.00,0.00,0.00,0.00,0.00,100,400,500,00006AB3
147213,RECV,WR,996,993,993,192,173,173,173,-1464,0.00,0.00,0.00,0.00,0.00,0.00,0.00,0.00,0,0,0,0,0,0,0,0,0.00,0.00,0.00,0.00,0.00,0,0,0,000093E7
147229,HOVER,UPD,1500,1500,1500,0,1000,1000,1000,0,0.00,0.00,0.00,0.00,0.00,0.00,0.00,0.00,0,0,0,0,0,0,0,0,0.00,0.00,0.00,0.00,0.00,100,400,500,00009EC0
147250,HOVER,UPD,1500,1500,1500,0,1000,1000,1000,0,0.00,0.00,0.00,0.00,0.00,0.00,0.00,0.00,0,0,0,0,0,0,0,0,0.00,0.00,0.00,0.00,0.00,100,400,500,00005E89
147261,RECV,WR,996,993,993,-1410,173,173,173,-1464,0.00,0.00,0.00,0.00,0.00,0.00,0.00,0.00,0,0,0,0,0,0,0,0,0.00,0.00,0.00,0.00,0.00,0,0,0,00000FEF
147273,SDIST,UPD,0,0,0,75,0,0,0,0,32.39,24.29,450.00,409.51,100.00,75.00,450.00,289.01,371,24,0,0,310,75,0,0,0.00,0.00,0.00,0.00,0.00,0,0,0,00007C4A
147284,RECV,WR,996,993,993,192,173,173,173,-1464,0.00,0.00,0.00,0.00,0.00,0.00,0.00,0.00,0,0,0,0,0,0,0,0,0.00,0.00,0.00,0.00,0.00,0,0,0,0000E8F7
147295,HOVER,UPD,1500,1500,1500,0,1000,1000,1000,0,0.00,0.00,0.00,0.00,0.00,0.00,0.00,0.00,0,0,0,0,0,0,0,0,0.00,0.00,0.00,0.00,0.00,100,400,500,0000A14C
147326,HOVER,UPD,1500,1500,1500,0,1000,1000,1000,0,0.00,0.00,0.00,0.00,0.00,0.00,0.00,0.00,0,0,0,0,0,0,0,0,0.00,0.00,0.00,0.00,0.00,100,400,500,0000657B
147339,RECV,WR,996,993,993,-1410,173,173,173,-1464,0.00,0.00,0.00,0.00,0.00,0.00,0.00,0.00,0,0,0,0,0,0,0,0,0.00,0.00,0.00,0.00,0.00,0,0,0,0000A51C
147354,RECV,WR,996,993,993,192,173,173,173,-1464,0.00,0.00,0.00,0.00,0.00,0.00,0.00,0.00,0,0,0,0,0,0,0,0,0.00,0.00,0.00,0.00,0.00,0,0,0,0000AE2E
147365,HOVER,UPD,1500,1500,1500,0,1000,1000,1000,0,0.00,0.00,0.00,0.00,0.00,0.00,0.00,0.00,0,0,0,0,0,0,0,0,0.00,0.00,0.00,0.00,0.00,100,400,500,00003038
147365,SDIST,UPD,0,0,0,75,0,0,0,0,46.01,34.51,450.00,392.48,100.00,75.00,450.00,306.64,336,34,0,0,330,75,0,0,0.00,0.00,0.00,0.00,0.00,0,0,0,00005964
147392,HOVER,UPD,1500,1500,1500,0,1000,1000,1000,0,0.00,0.00,0.00,0.00,0.00,0.00,0.00,0.00,0,0,0,0,0,0,0,0,0.00,0.00,0.00,0.00,0.00,100,400,500,0000E796
147403,RECV,WR,996,993,993,-1410,173,173,173,-1464,0.00,0.00,0.00,0.00,0.00,0.00,0.00,0.00,0,0,0,0,0,0,0,0,0.00,0.00,0.00,0.00,0.00,0,0,0,0000ADEF
147418,RECV,WR,996,993,993,192,173,173,173,-1464,0.00,0.00,0.00,0.00,0.00,0.00,0.00,0.00,0,0,0,0,0,0,0,0,0.00,0.00,0.00,0.00,0.00,0,0,0,0000E993
147429,HOVER,UPD,1500,1500,1500,0,1000,1000,1000,0,0.00,0.00,0.00,0.00,0.00,0.00,0.00,0.00,0,0,0,0,0,0,0,0,0.00,0.00,0.00,0.00,0.00,100,400,500,0000198E
147445,SDIST,UPD,0,0,0,75,0,0,0,0,63.33,47.50,450.00,370.84,100.00,75.00,450.00,303.72,333,47,0,0,300,75,0,0,0.00,0.00,0.00,0.00,0.00,0,0,0,0000793F
147456,RECV,WR,996,993,993,-1410,173,173,173,-1464,0.00,0.00,0.00,0.00,0.00,0.00,0.00,0.00,0,0,0,0,0,0,0,0,0.00,0.00,0.00,0.00,0.00,0,0,0,0000AEF4
147467,HOVER,UPD,1500,1500,1500,0,1000,1000,1000,0,0.00,0.00,0.00,0.00,0.00,0.00,0.00,0.00,0,0,0,0,0,0,0,0,0.00,0.00,0.00,0.00,0.00,100,400,500,000012A4
147488,RECV,WR,996,993,993,192,173,173,173,-1464,0.00,0.00,0.00,0.00,0.00,0.00,0.00,0.00,0,0,0,0,0,0,0,0,0.00,0.00,0.00,0.00,0.00,0,0,0,0000E20B
147504,HOVER,UPD,1500,1500,1500,0,1000,1000,1000,0,0.00,0.00,0.00,0.00,0.00,0.00,0.00,0.00,0,0,0,0,0,0,0,0,0.00,0.00,0.00,0.00,0.00,100,400,500,000004A8
147525,HOVER,UPD,1500,1500,1500,0,1000,1000,1000,0,0.00,0.00,0.00,0.00,0.00,0.00,0.00,0.00,0,0,0,0,0,0,0,0,0.00,0.00,0.00,0.00,0.00,100,400,500,0000BCCD
147536,RECV,WR,996,993,993,-1410,173,173,173,-1464,0.00,0.00,0.00,0.00,0.00,0.00,0.00,0.00,0,0,0,0,0,0,0,0,0.00,0.00,0.00,0.00,0.00,0,0,0,0000BC27
147551,SDIST,UPD,0,0,0,75,0,0,0,0,62.56,46.92,450.00,371.80,100.00,75.00,450.00,285.88,373,46,0,0,250,75,0,0,0.00,0.00,0.00,0.00,0.00,0,0,0,000004F8
147562,HOVER,UPD,1500,1500,1500,0,1000,1000,1000,0,0.00,0.00,0.00,0.00,0.00,0.00,0.00,0.00,0,0,0,0,0,0,0,0,0.00,0.00,0.00,0.00,0.00,100,400,500,00003F2E
147563,RECV,WR,996,993,993,192,173,173,173,-1464,0.00,0.00,0.00,0.00,0.00,0.00,0.00,0.00,0,0,0,0,0,0,0,0,0.00,0.00,0.00,0.00,0.00,0,0,0,00007DA9
147589,HOVER,UPD,1500,1500,1500,0,1000,1000,1000,0,0.00,0.00,0.00,0.00,0.00,0.00,0.00,0.00,0,0,0,0,0,0,0,0,0.00,0.00,0.00,0.00,0.00,100,400,500,00004DB7
147610,HOVER,UPD,1500,1500,1500,0,1000,1000,1000,0,0.00,0.00,0.00,0.00,0.00,0.00,0.00,0.00,0,0,0,0,0,0,0,0,0.00,0.00,0.00,0.00,0.00,100,400,500,00005F59
147621,RECV,WR,996,993,993,-1410,173,173,173,-1464,0.00,0.00,0.00,0.00,0.00,0.00,0.00,0.00,0,0,0,0,0,0,0,0,0.00,0.00,0.00,0.00,0.00,0,0,0,00007C66
147637,HOVER,UPD,1500,1500,1500,0,1000,1000,1000,0,0.00,0.00,0.00,0.00,0.00,0.00,0.00,0.00,0,0,0,0,0,0,0,0,0.00,0.00,0.00,0.00,0.00,100,400,500,00005ACC
147638,RECV,WR,996,993,993,192,173,173,173,-1464,0.00,0.00,0.00,0.00,0.00,0.00,0.00,0.00,0,0,0,0,0,0,0,0,0.00,0.00,0.00,0.00,0.00,0,0,0,00007B61
147638,SDIST,UPD,0,0,0,75,0,0,0,0,56.94,42.71,450.00,378.82,100.00,75.00,450.00,242.69,394,42,0,0,180,75,0,0,0.00,0.00,0.00,0.00,0.00,0,0,0,0000A749
147670,HOVER,UPD,1500,1500,1500,0,1000,1000,1000,0,0.00,0.00,0.00,0.00,0.00,0.00,0.00,0.00,0,0,0,0,0,0,0,0,0.00,0.00,0.00,0.00,0.00,100,400,500,0000D92F
147691,HOVER,UPD,1500,1500,1500,0,1000,1000,1000,0,0.00,0.00,0.00,0.00,0.00,0.00,0.00,0.00,0,0,0,0,0,0,0,0,0.00,0.00,0.00,0.00,0.00,100,400,500,00007D87
147691,RECV,WR,996,993,993,-1410,173,173,173,-1464,0.00,0.00,0.00,0.00,0.00,0.00,0.00,0.00,0,0,0,0,0,0,0,0,0.00,0.00,0.00,0.00,0.00,0,0,0,0000938B
147719,RECV,WR,996,993,993,192,173,173,173,-1464,0.00,0.00,0.00,0.00,0.00,0.00,0.00,0.00,0,0,0,0,0,0,0,0,0.00,0.00,0.00,0.00,0.00,0,0,0,00009C65
147730,HOVER,UPD,1500,1500,1500,0,1000,1000,1000,0,0.00,0.00,0.00,0.00,0.00,0.00,0.00,0.00,0,0,0,0,0,0,0,0,0.00,0.00,0.00,0.00,0.00,100,400,500,00001C16
147730,SDIST,UPD,0,0,0,75,0,0,0,0,53.14,39.85,450.00,383.58,100.00,75.00,450.00,202.00,394,39,0,0,170,75,0,0,0.00,0.00,0.00,0.00,0.00,0,0,0,0000023C
147757,HOVER,UPD,1500,1500,1500,0,1000,1000,1000,0,0.00,0.00,0.00,0.00,0.00,0.00,0.00,0.00,0,0,0,0,0,0,0,0,0.00,0.00,0.00,0.00,0.00,100,400,500,00001238
147768,RECV,WR,996,993,993,-1410,173,173,173,-1464,0.00,0.00,0.00,0.00,0.00,0.00,0.00,0.00,0,0,0,0,0,0,0,0,0.00,0.00,0.00,0.00,0.00,0,0,0,00007678
147783,RECV,WR,996,993,993,192,173,173,173,-1464,0.00,0.00,0.00,0.00,0.00,0.00,0.00,0.00,0,0,0,0,0,0,0,0,0.00,0.00,0.00,0.00,0.00,0,0,0,0000E0FB
147794,HOVER,UPD,1500,1500,1500,0,1000,1000,1000,0,0.00,0.00,0.00,0.00,0.00,0.00,0.00,0.00,0,0,0,0,0,0,0,0,0.00,0.00,0.00,0.00,0.00,100,400,500,0000500D
147810,SDIST,UPD,0,0,0,75,0,0,0,0,58.15,43.61,450.00,377.32,100.00,75.00,450.00,241.35,362,43,0,0,270,75,0,0,0.00,0.00,0.00,0.00,0.00,0,0,0,0000E142
147821,RECV,WR,996,993,993,-1410,173,173,173,-1464,0.00,0.00,0.00,0.00,0.00,0.00,0.00,0.00,0,0,0,0,0,0,0,0,0.00,0.00,0.00,0.00,0.00,0,0,0,0000CD5B
147832,HOVER,UPD,1500,1500,1500,0,1000,1000,1000,0,0.00,0.00,0.00,0.00,0.00,0.00,0.00,0.00,0,0,0,0,0,0,0,0,0.00,0.00,0.00,0.00,0.00,100,400,500,00002A5C
147853,RECV,WR,996,993,993,192,173,173,173,-1464,0.00,0.00,0.00,0.00,0.00,0.00,0.00,0.00,0,0,0,0,0,0,0,0,0.00,0.00,0.00,0.00,0.00,0,0,0,00009790
147869,HOVER,UPD,1500,1500,1500,0,1000,1000,1000,0,0.00,0.00,0.00,0.00,0.00,0.00,0.00,0.00,0,0,0,0,0,0,0,0,0.00,0.00,0.00,0.00,0.00,100,400,500,00000C88
147890,HOVER,UPD,1500,1500,1500,0,1000,1000,1000,0,0.00,0.00,0.00,0.00,0.00,0.00,0.00,0.00,0,0,0,0,0,0,0,0,0.00,0.00,0.00,0.00,0.00,100,400,500,0000DBB7
147901,RECV,WR,996,993,993,-1410,173,173,173,-1464,0.00,0.00,0.00,0.00,0.00,0.00,0.00,0.00,0,0,0,0,0,0,0,0,0.00,0.00,0.00,0.00,0.00,0,0,0,0000BCC4
147917,HOVER,UPD,1500,1500,1500,0,1000,1000,1000,0,0.00,0.00,0.00,0.00,0.00,0.00,0.00,0.00,0,0,0,0,0,0,0,0,0.00,0.00,0.00,0.00,0.00,100,400,500,00008A1B
147918,RECV,WR,996,993,993,192,173,173,173,-1464,0.00,0.00,0.00,0.00,0.00,0.00,0.00,0.00,0,0,0,0,0,0,0,0,0.00,0.00,0.00,0.00,0.00,0,0,0,00000042
147918,SDIST,UPD,0,0,0,75,0,0,0,0,72.07,54.05,450.00,359.91,100.00,75.00,450.00,257.89,318,54,0,0,270,75,0,0,0.00,0.00,0.00,0.00,0.00,0,0,0,0000DCBB
147950,HOVER,UPD,1500,1500,1500,0,1000,1000,1000,0,0.00,0.00,0.00,0.00,0.00,0.00,0.00,0.00,0,0,0,0,0,0,0,0,0.00,0.00,0.00,0.00,0.00,100,400,500,000009F8
147971,HOVER,UPD,1500,1500,1500,0,1000,1000,1000,0,0.00,0.00,0.00,0.00,0.00,0.00,0.00,0.00,0,0,0,0,0,0,0,0,0.00,0.00,0.00,0.00,0.00,100,400,500,0000B19D
147971,RECV,WR,996,993,993,-1410,173,173,173,-1464,0.00,0.00,0.00,0.00,0.00,0.00,0.00,0.00,0,0,0,0,0,0,0,0,0.00,0.00,0.00,0.00,0.00,0,0,0,0000F6FD
147999,RECV,WR,996,993,993,192,173,173,173,-1464,0.00,0.00,0.00,0.00,0.00,0.00,0.00,0.00,0,0,0,0,0,0,0,0,0.00,0.00,0.00,0.00,0.00,0,0,0,00005708
148010,HOVER,UPD,1500,1500,1500,0,1000,1000,1000,0,0.00,0.00,0.00,0.00,0.00,0.00,0.00,0.00,0,0,0,0,0,0,0,0,0.00,0.00,0.00,0.00,0.00,100,400,500,0000494F
148010,SDIST,UPD,0,0,0,75,0,0,0,0,84.24,63.18,450.00,344.70,100.00,75.00,450.00,282.69,321,63,0,0,310,75,0,0,0.00,0.00,0.00,0.00,0.00,0,0,0,000022E1
148037,HOVER,UPD,1500,1500,1500,0,1000,1000,1000,0,0.00,0.00,0.00,0.00,0.00,0.00,0.00,0.00,0,0,0,0,0,0,0,0,0.00,0.00,0.00,0.00,0.00,100,400,500,00004CDA
148048,RECV,WR,996,993,993,-1410,173,173,173,-1464,0.00,0.00,0.00,0.00,0.00,0.00,0.00,0.00,0,0,0,0,0,0,0,0,0.00,0.00,0.00,0.00,0.00,0,0,0,00006C6E
148063,RECV,WR,996,993,993,192,173,173,173,-1464,0.00,0.00,0.00,0.00,0.00,0.00,0.00,0.00,0,0,0,0,0,0,0,0,0.00,0.00,0.00,0.00,0.00,0,0,0,0000898C
148074,HOVER,UPD,1500,1500,1500,0,1000,1000,1000,0,0.00,0.00,0.00,0.00,0.00,0.00,0.00,0.00,0,0,0,0,0,0,0,0,0.00,0.00,0.00,0.00,0.00,100,400,500,00001999
148090,SDIST,UPD,0,0,0,75,0,0,0,0,78.89,59.17,450.00,351.38,100.00,75.00,450.00,306.01,361,59,0,0,330,75,0,0,0.00,0.00,0.00,0.00,0.00,0,0,0,0000CA70
148101,RECV,WR,996,993,993,-1410,173,173,173,-1464,0.00,0.00,0.00,0.00,0.00,0.00,0.00,0.00,0,0,0,0,0,0,0,0,0.00,0.00,0.00,0.00,0.00,0,0,0,00006670
148112,HOVER,UPD,1500,1500,1500,0,1000,1000,1000,0,0.00,0.00,0.00,0.00,0.00,0.00,0.00,0.00,0,0,0,0,0,0,0,0,0.00,0.00,0.00,0.00,0.00,100,400,500,0000EC9D
148133,RECV,WR,996,993,993,192,173,173,173,-1464,0.00,0.00,0.00,0.00,0.00,0.00,0.00,0.00,0,0,0,0,0,0,0,0,0.00,0.00,0.00,0.00,0.00,0,0,0,0000358A
148149,HOVER,UPD,1500,1500,1500,0,1000,1000,1000,0,0.00,0.00,0.00,0.00,0.00,0.00,0.00,0.00,0,0,0,0,0,0,0,0,0.00,0.00,0.00,0.00,0.00,100,400,500,0000CA49
148170,HOVER,UPD,1500,1500,1500,0,1000,1000,1000,0,0.00,0.00,0.00,0.00,0.00,0.00,0.00,0.00,0,0,0,0,0,0,0,0,0.00,0.00,0.00,0.00,0.00,100,400,500,000001BB
148181,RECV,WR,996,993,993,-1410,173,173,173,-1464,0.00,0.00,0.00,0.00,0.00,0.00,0.00,0.00,0,0,0,0,0,0,0,0,0.00,0.00,0.00,0.00,0.00,0,0,0,0000A0E8
148196,SDIST,UPD,0,0,0,64,0,0,0,0,69.98,52.49,450.00,362.52,86.21,64.66,450.00,342.23,383,52,0,0,380,64,0,0,0.00,0.00,0.00,0.00,0.00,0,0,0,00008675
148207,HOVER,UPD,1500,1500,1500,0,1000,1000,1000,0,0.00,0.00,0.00,0.00,0.00,0.00,0.00,0.00,0,0,0,0,0,0,0,0,0.00,0.00,0.00,0.00,0.00,100,400,500,000082C4
148208,RECV,WR,996,993,993,192,173,173,173,-1464,0.00,0.00,0.00,0.00,0.00,0.00,0.00,0.00,0,0,0,0,0,0,0,0,0.00,0.00,0.00,0.00,0.00,0,0,0,00003492
148234,HOVER,UPD,1500,1500,1500,0,1000,1000,1000,0,0.00,0.00,0.00,0.00,0.00,0.00,0.00,0.00,0,0,0,0,0,0,0,0,0.00,0.00,0.00,0.00,0.00,100,400,500,00009F07
148255,HOVER,UPD,1500,1500,1500,0,1000,1000,1000,0,0.00,0.00,0.00,0.00,0.00,0.00,0.00,0.00,0,0,0,0,0,0,0,0,0.00,0.00,0.00,0.00,0.00,100,400,500,00002CD9
148266,RECV,WR,996,993,993,-1410,173,173,173,-1464,0.00,0.00,0.00,0.00,0.00,0.00,0.00,0.00,0,0,0,0,0,0,0,0,0.00,0.00,0.00,0.00,0.00,0,0,0,0000EC08
148282,HOVER,UPD,1500,1500,1500,0,1000,1000,1000,0,0.00,0.00,0.00,0.00,0.00,0.00,0.00,0.00,0,0,0,0,0,0,0,0,0.00,0.00,0.00,0.00,0.00,100,400,500,000076BA
148283,RECV,WR,996,993,993,192,173,173,173,-1464,0.00,0.00,0.00,0.00,0.00,0.00,0.00,0.00,0,0,0,0,0,0,0,0,0.00,0.00,0.00,0.00,0.00,0,0,0,000014DE
148283,SDIST,UPD,0,0,0,49,0,0,0,0,66.05,49.54,450.00,367.44,56.48,42.36,450.00,379.39,376,49,0,0,410,42,0,0,0.00,0.00,0.00,0.00,0.00,0,0,0,0000A2C3
148315,HOVER,UPD,1500,1500,1500,0,1000,1000,1000,0,0.00,0.00,0.00,0.00,0.00,0.00,0.00,0.00,0,0,0,0,0,0,0,0,0.00,0.00,0.00,0.00,0.00,100,400,500,0000E9E0
148336,HOVER,UPD,1500,1500,1500,0,1000,1000,1000,0,0.00,0.00,0.00,0.00,0.00,0.00,0.00,0.00,0,0,0,0,0,0,0,0,0.00,0.00,0.00,0.00,0.00,100,400,500,00003AD5
148336,RECV,WR,996,993,993,-1410,173,173,173,-1464,0.00,0.00,0.00,0.00,0.00,0.00,0.00,0.00,0,0,0,0,0,0,0,0,0.00,0.00,0.00,0.00,0.00,0,0,0,0000D7AE
148364,RECV,WR,996,993,993,192,173,173,173,-1464,0.00,0.00,0.00,0.00,0.00,0.00,0.00,0.00,0,0,0,0,0,0,0,0,0.00,0.00,0.00,0.00,0.00,0,0,0,00002167
148375,HOVER,UPD,1500,1500,1500,0,1000,1000,1000,0,0.00,0.00,0.00,0.00,0.00,0.00,0.00,0.00,0,0,0,0,0,0,0,0,0.00,0.00,0.00,0.00,0.00,100,400,500,00006F96
148375,SDIST,UPD,0,0,0,48,0,0,0,0,64.39,48.29,450.00,369.52,47.19,35.40,450.00,391.01,374,48,0,0,400,35,0,0,0.00,0.00,0.00,0.00,0.00,0,0,0,000003E6
148402,HOVER,UPD,1500,1500,1500,0,1000,1000,1000,0,0.00,0.00,0.00,0.00,0.00,0.00,0.00,0.00,0,0,0,0,0,0,0,0,0.00,0.00,0.00,0.00,0.00,100,400,500,0000E682
148413,RECV,WR,996,993,993,-1410,173,173,173,-1464,0.00,0.00,0.00,0.00,0.00,0.00,0.00,0.00,0,0,0,0,0,0,0,0,0.00,0.00,0.00,0.00,0.00,0,0,0,00004E02
148428,RECV,WR,996,993,993,192,173,173,173,-1464,0.00,0.00,0.00,0.00,0.00,0.00,0.00,0.00,0,0,0,0,0,0,0,0,0.00,0.00,0.00,0.00,0.00,0,0,0,000066DA
148439,HOVER,UPD,1500,1500,1500,0,1000,1000,1000,0,0.00,0.00,0.00,0.00,0.00,0.00,0.00,0.00,0,0,0,0,0,0,0,0,0.00,0.00,0.00,0.00,0.00,100,400,500,00004620
148455,SDIST,UPD,0,0,0,56,0,0,0,0,65.34,49.00,450.00,368.33,75.91,56.94,450.00,355.11,365,49,0,0,310,56,0,0,0.00,0.00,0.00,0.00,0.00,0,0,0,0000CC31
148466,RECV,WR,996,993,993,-1410,173,173,173,-1464,0.00,0.00,0.00,0.00,0.00,0.00,0.00,0.00,0,0,0,0,0,0,0,0,0.00,0.00,0.00,0.00,0.00,0,0,0,00007CBF
148477,HOVER,UPD,1500,1500,1500,0,1000,1000,1000,0,0.00,0.00,0.00,0.00,0.00,0.00,0.00,0.00,0,0,0,0,0,0,0,0,0.00,0.00,0.00,0.00,0.00,100,400,500,00004D0A
148488,RECV,WR,996,993,993,192,173,173,173,-1464,0.00,0.00,0.00,0.00,0.00,0.00,0.00,0.00,0,0,0,0,0,0,0,0,0.00,0.00,0.00,0.00,0.00,0,0,0,00006EAA
148514,HOVER,UPD,1500,1500,1500,0,1000,1000,1000,0,0.00,0.00,0.00,0.00,0.00,0.00,0.00,0.00,0,0,0,0,0,0,0,0,0.00,0.00,0.00,0.00,0.00,100,400,500,00005B06
148535,HOVER,UPD,1500,1500,1500,0,1000,1000,1000,0,0.00,0.00,0.00,0.00,0.00,0.00,0.00,0.00,0,0,0,0,0,0,0,0,0.00,0.00,0.00,0.00,0.00,100,400,500,0000E363
148546,RECV,WR,996,993,993,-1410,173,173,173,-1464,0.00,0.00,0.00,0.00,0.00,0.00,0.00,0.00,0,0,0,0,0,0,0,0,0.00,0.00,0.00,0.00,0.00,0,0,0,00000D20
148562,HOVER,UPD,1500,1500,1500,0,1000,1000,1000,0,0.00,0.00,0.00,0.00,0.00,0.00,0.00,0.00,0,0,0,0,0,0,0,0,0.00,0.00,0.00,0.00,0.00,100,400,500,0000AE76
148563,RECV,WR,996,993,993,192,173,173,173,-1464,0.00,0.00,0.00,0.00,0.00,0.00,0.00,0.00,0,0,0,0,0,0,0,0,0.00,0.00,0.00,0.00,0.00,0,0,0,0000F108
148563,SDIST,UPD,0,0,0,68,0,0,0,0,65.40,49.05,450.00,368.25,91.00,68.25,450.00,336.24,368,49,0,0,320,68,0,0,0.00,0.00,0.00,0.00,0.00,0,0,0,0000B7C6
148595,HOVER,UPD,1500,1500,1500,0,1000,1000,1000,0,0.00,0.00,0.00,0.00,0.00,0.00,0.00,0.00,0,0,0,0,0,0,0,0,0.00,0.00,0.00,0.00,0.00,100,400,500,000079D8
148616,HOVER,UPD,1500,1500,1500,0,1000,1000,1000,0,0.00,0.00,0.00,0.00,0.00,0.00,0.00,0.00,0,0,0,0,0,0,0,0,0.00,0.00,0.00,0.00,0.00,100,400,500,000073F1
148616,RECV,WR,996,993,993,-1410,173,173,173,-1464,0.00,0.00,0.00,0.00,0.00,0.00,0.00,0.00,0,0,0,0,0,0,0,0,0.00,0.00,0.00,0.00,0.00,0,0,0,0000B6F4
148644,RECV,WR,996,993,993,192,173,173,173,-1464,0.00,0.00,0.00,0.00,0.00,0.00,0.00,0.00,0,0,0,0,0,0,0,0,0.00,0.00,0.00,0.00,0.00,0,0,0,0000AB4C
148655,HOVER,UPD,1500,1500,1500,0,1000,1000,1000,0,0.00,0.00,0.00,0.00,0.00,0.00,0.00,0.00,0,0,0,0,0,0,0,0,0.00,0.00,0.00,0.00,0.00,100,400,500,000026B2
148655,SDIST,UPD,0,0,0,75,0,0,0,0,60.59,45.44,450.00,374.26,100.00,75.00,450.00,323.71,401,45,0,0,310,75,0,0,0.00,0.00,0.00,0.00,0.00,0,0,0,00007F5F
148682,HOVER,UPD,1500,1500,1500,0,1000,1000,1000,0,0.00,0.00,0.00,0.00,0.00,0.00,0.00,0.00,0,0,0,0,0,0,0,0,0.00,0.00,0.00,0.00,0.00,100,400,500,00007CD1
148693,RECV,WR,996,993,993,-1410,173,173,173,-1464,0.00,0.00,0.00,0.00,0.00,0.00,0.00,0.00,0,0,0,0,0,0,0,0,0.00,0.00,0.00,0.00,0.00,0,0,0,000008E8
148708,RECV,WR,996,993,993,192,173,173,173,-1464,0.00,0.00,0.00,0.00,0.00,0.00,0.00,0.00,0,0,0,0,0,0,0,0,0.00,0.00,0.00,0.00,0.00,0,0,0,00004C16
148719,HOVER,UPD,1500,1500,1500,0,1000,1000,1000,0,0.00,0.00,0.00,0.00,0.00,0.00,0.00,0.00,0,0,0,0,0,0,0,0,0.00,0.00,0.00,0.00,0.00,100,400,500,0000884A
148735,SDIST,UPD,0,0,0,48,0,0,0,0,50.57,37.93,450.00,386.78,65.20,48.90,450.00,368.50,428,37,0,0,430,48,0,0,0.00,0.00,0.00,0.00,0.00,0,0,0,0000E132
148746,RECV,WR,996,993,993,-1410,173,173,173,-1464,0.00,0.00,0.00,0.00,0.00,0.00,0.00,0.00,0,0,0,0,0,0,0,0,0.00,0.00,0.00,0.00,0.00,0,0,0,00008D52
148757,HOVER,UPD,1500,1500,1500,0,1000,1000,1000,0,0.00,0.00,0.00,0.00,0.00,0.00,0.00,0.00,0,0,0,0,0,0,0,0,0.00,0.00,0.00,0.00,0.00,100,400,500,00008360
148778,RECV,WR,996,993,993,192,173,173,173,-1464,0.00,0.00,0.00,0.00,0.00,0.00,0.00,0.00,0,0,0,0,0,0,0,0,0.00,0.00,0.00,0.00,0.00,0,0,0,0000BA81
148794,HOVER,UPD,1500,1500,1500,0,1000,1000,1000,0,0.00,0.00,0.00,0.00,0.00,0.00,0.00,0.00,0,0,0,0,0,0,0,0,0.00,0.00,0.00,0.00,0.00,100,400,500,0000C155
148815,HOVER,UPD,1500,1500,1500,0,1000,1000,1000,0,0.00,0.00,0.00,0.00,0.00,0.00,0.00,0.00,0,0,0,0,0,0,0,0,0.00,0.00,0.00,0.00,0.00,100,400,500,0000BE91
148826,RECV,WR,996,993,993,-1410,173,173,173,-1464,0.00,0.00,0.00,0.00,0.00,0.00,0.00,0.00,0,0,0,0,0,0,0,0,0.00,0.00,0.00,0.00,0.00,0,0,0,00002EBC
148838,SDIST,UPD,0,0,0,29,0,0,0,0,39.31,29.48,450.00,400.87,37.23,27.92,450.00,403.46,430,29,0,0,430,27,0,0,0.00,0.00,0.00,0.00,0.00,0,0,0,0000ABC1
148849,RECV,WR,996,993,993,192,173,173,173,-1464,0.00,0.00,0.00,0.00,0.00,0.00,0.00,0.00,0,0,0,0,0,0,0,0,0.00,0.00,0.00,0.00,0.00,0,0,0,00009D70
148860,HOVER,UPD,1500,1500,1500,0,1000,1000,1000,0,0.00,0.00,0.00,0.00,0.00,0.00,0.00,0.00,0,0,0,0,0,0,0,0,0.00,0.00,0.00,0.00,0.00,100,400,500,00001519
148891,HOVER,UPD,1500,1500,1500,0,1000,1000,1000,0,0.00,0.00,0.00,0.00,0.00,0.00,0.00,0.00,0,0,0,0,0,0,0,0,0.00,0.00,0.00,0.00,0.00,100,400,500,00007F47
148893,RECV,WR,996,993,993,-1410,173,173,173,-1464,0.00,0.00,0.00,0.00,0.00,0.00,0.00,0.00,0,0,0,0,0,0,0,0,0.00,0.00,0.00,0.00,0.00,0,0,0,0000B9D5
148917,RECV,WR,996,993,993,192,173,173,173,-1464,0.00,0.00,0.00,0.00,0.00,0.00,0.00,0.00,0,0,0,0,0,0,0,0,0.00,0.00,0.00,0.00,0.00,0,0,0,0000C066
148928,HOVER,UPD,1500,1500,1500,0,1000,1000,1000,0,0.00,0.00,0.00,0.00,0.00,0.00,0.00,0.00,0,0,0,0,0,0,0,0,0.00,0.00,0.00,0.00,0.00,100,400,500,00006D41
148939,SDIST,UPD,0,0,0,23,0,0,0,0,30.80,23.10,450.00,411.50,25.36,19.02,450.00,418.30,429,23,0,0,430,19,0,0,0.00,0.00,0.00,0.00,0.00,0,0,0,000098A7
148955,HOVER,UPD,1500,1500,1500,0,1000,1000,1000,0,0.00,0.00,0.00,0.00,0.00,0.00,0.00,0.00,0,0,0,0,0,0,0,0,0.00,0.00,0.00,0.00,0.00,100,400,500,00007BA8
148966,RECV,WR,996,993,993,-1410,173,173,173,-1464,0.00,0.00,0.00,0.00,0.00,0.00,0.00,0.00,0,0,0,0,0,0,0,0,0.00,0.00,0.00,0.00,0.00,0,0,0,00000DC9
148981,RECV,WR,996,993,993,192,173,173,173,-1464,0.00,0.00,0.00,0.00,0.00,0.00,0.00,0.00,0,0,0,0,0,0,0,0,0.00,0.00,0.00,0.00,0.00,0,0,0,000016E3
148992,HOVER,UPD,1500,1500,1500,0,1000,1000,1000,0,0.00,0.00,0.00,0.00,0.00,0.00,0.00,0.00,0,0,0,0,0,0,0,0,0.00,0.00,0.00,0.00,0.00,100,400,500,0000EF3D
149008,SDIST,UPD,0,0,0,23,0,0,0,0,31.84,23.88,450.00,410.20,21.05,15.78,450.00,423.69,408,23,0,0,430,15,0,0,0.00,0.00,0.00,0.00,0.00,0,0,0,00006E01
149019,RECV,WR,996,993,993,-1410,173,173,173,-1464,0.00,0.00,0.00,0.00,0.00,0.00,0.00,0.00,0,0,0,0,0,0,0,0,0.00,0.00,0.00,0.00,0.00,0,0,0,0000DE0B
149030,HOVER,UPD,1500,1500,1500,0,1000,1000,1000,0,0.00,0.00,0.00,0.00,0.00,0.00,0.00,0.00,0,0,0,0,0,0,0,0,0.00,0.00,0.00,0.00,0.00,100,400,500,00007E00
149051,RECV,WR,996,993,993,192,173,173,173,-1464,0.00,0.00,0.00,0.00,0.00,0.00,0.00,0.00,0,0,0,0,0,0,0,0,0.00,0.00,0.00,0.00,0.00,0,0,0,0000D9BC
149067,HOVER,UPD,1500,1500,1500,0,1000,1000,1000,0,0.00,0.00,0.00,0.00,0.00,0.00,0.00,0.00,0,0,0,0,0,0,0,0,0.00,0.00,0.00,0.00,0.00,100,400,500,00003315
149088,HOVER,UPD,1500,1500,1500,0,1000,1000,1000,0,0.00,0.00,0.00,0.00,0.00,0.00,0.00,0.00,0,0,0,0,0,0,0,0,0.00,0.00,0.00,0.00,0.00,100,400,500,0000972C
149099,RECV,WR,996,993,993,-1410,173,173,173,-1464,0.00,0.00,0.00,0.00,0.00,0.00,0.00,0.00,0,0,0,0,0,0,0,0,0.00,0.00,0.00,0.00,0.00,0,0,0,00001893
149115,HOVER,UPD,1500,1500,1500,0,1000,1000,1000,0,0.00,0.00,0.00,0.00,0.00,0.00,0.00,0.00,0,0,0,0,0,0,0,0,0.00,0.00,0.00,0.00,0.00,100,400,500,0000DE47
149116,RECV,WR,996,993,993,192,173,173,173,-1464,0.00,0.00,0.00,0.00,0.00,0.00,0.00,0.00,0,0,0,0,0,0,0,0,0.00,0.00,0.00,0.00,0.00,0,0,0,0000E475
149116,SDIST,UPD,0,0,0,29,0,0,0,0,39.39,29.54,450.00,400.76,39.53,29.64,450.00,400.59,377,29,0,0,360,29,0,0,0.00,0.00,0.00,0.00,0.00,0,0,0,00006C2A
149148,HOVER,UPD,1500,1500,1500,0,1000,1000,1000,0,0.00,0.00,0.00,0.00,0.00,0.00,0.00,0.00,0,0,0,0,0,0,0,0,0.00,0.00,0.00,0.00,0.00,100,400,500,00004563
149169,HOVER,UPD,1500,1500,1500,0,1000,1000,1000,0,0.00,0.00,0.00,0.00,0.00,0.00,0.00,0.00,0,0,0,0,0,0,0,0,0.00,0.00,0.00,0.00,0.00,100,400,500,0000FD06
149169,RECV,WR,996,993,993,-1410,173,173,173,-1464,0.00,0.00,0.00,0.00,0.00,0.00,0.00,0.00,0,0,0,0,0,0,0,0,0.00,0.00,0.00,0.00,0.00,0,0,0,0000D40B
149197,RECV,WR,996,993,993,192,173,173,173,-1464,0.00,0.00,0.00,0.00,0.00,0.00,0.00,0.00,0,0,0,0,0,0,0,0,0.00,0.00,0.00,0.00,0.00,0,0,0,0000B33F
149208,HOVER,UPD,1500,1500,1500,0,1000,1000,1000,0,0.00,0.00,0.00,0.00,0.00,0.00,0.00,0.00,0,0,0,0,0,0,0,0,0.00,0.00,0.00,0.00,0.00,100,400,500,00000D7F
149208,SDIST,UPD,0,0,0,32,0,0,0,0,42.93,32.20,450.00,396.34,25.28,18.96,450.00,418.40,387,32,0,0,440,18,0,0,0.00,0.00,0.00,0.00,0.00,0,0,0,00001BC1
149235,HOVER,UPD,1500,1500,1500,0,1000,1000,1000,0,0.00,0.00,0.00,0.00,0.00,0.00,0.00,0.00,0,0,0,0,0,0,0,0,0.00,0.00,0.00,0.00,0.00,100,400,500,0000102D
149246,RECV,WR,996,993,993,-1410,173,173,173,-1464,0.00,0.00,0.00,0.00,0.00,0.00,0.00,0.00,0,0,0,0,0,0,0,0,0.00,0.00,0.00,0.00,0.00,0,0,0,0000AC6A
149261,RECV,WR,996,993,993,192,173,173,173,-1464,0.00,0.00,0.00,0.00,0.00,0.00,0.00,0.00,0,0,0,0,0,0,0,0,0.00,0.00,0.00,0.00,0.00,0,0,0,0000BA09
149272,HOVER,UPD,1500,1500,1500,0,1000,1000,1000,0,0.00,0.00,0.00,0.00,0.00,0.00,0.00,0.00,0,0,0,0,0,0,0,0,0.00,0.00,0.00,0.00,0.00,100,400,500,000093CE
149288,SDIST,UPD,0,0,0,50,0,0,0,0,53.00,39.75,450.00,383.75,67.61,50.71,450.00,365.48,353,39,0,0,300,50,0,0,0.00,0.00,0.00,0.00,0.00,0,0,0,00006926
149299,RECV,WR,996,993,993,-1410,173,173,173,-1464,0.00,0.00,0.00,0.00,0.00,0.00,0.00,0.00,0,0,0,0,0,0,0,0,0.00,0.00,0.00,0.00,0.00,0,0,0,000098E1
149310,HOVER,UPD,1500,1500,1500,0,1000,1000,1000,0,0.00,0.00,0.00,0.00,0.00,0.00,0.00,0.00,0,0,0,0,0,0,0,0,0.00,0.00,0.00,0.00,0.00,100,400,500,0000B06A
149331,RECV,WR,996,993,993,192,173,173,173,-1464,0.00,0.00,0.00,0.00,0.00,0.00,0.00,0.00,0,0,0,0,0,0,0,0,0.00,0.00,0.00,0.00,0.00,0,0,0,0000060F
149347,HOVER,UPD,1500,1500,1500,0,1000,1000,1000,0,0.00,0.00,0.00,0.00,0.00,0.00,0.00,0.00,0,0,0,0,0,0,0,0,0.00,0.00,0.00,0.00,0.00,100,400,500,0000FD7F
149368,HOVER,UPD,1500,1500,1500,0,1000,1000,1000,0,0.00,0.00,0.00,0.00,0.00,0.00,0.00,0.00,0,0,0,0,0,0,0,0,0.00,0.00,0.00,0.00,0.00,100,400,500,0000458B
149379,RECV,WR,996,993,993,-1410,173,173,173,-1464,0.00,0.00,0.00,0.00,0.00,0.00,0.00,0.00,0,0,0,0,0,0,0,0,0.00,0.00,0.00,0.00,0.00,0,0,0,00004CAA
149391,SDIST,UPD,0,0,0,60,0,0,0,0,80.78,60.59,450.00,349.02,51.02,38.27,450.00,386.22,285,60,0,0,400,38,0,0,0.00,0.00,0.00,0.00,0.00,0,0,0,0000852B
149402,RECV,WR,996,993,993,192,173,173,173,-1464,0.00,0.00,0.00,0.00,0.00,0.00,0.00,0.00,0,0,0,0,0,0,0,0,0.00,0.00,0.00,0.00,0.00,0,0,0,0000FBA0
149413,HOVER,UPD,1500,1500,1500,0,1000,1000,1000,0,0.00,0.00,0.00,0.00,0.00,0.00,0.00,0.00,0,0,0,0,0,0,0,0,0.00,0.00,0.00,0.00,0.00,100,400,500,0000A75E
149444,HOVER,UPD,1500,1500,1500,0,1000,1000,1000,0,0.00,0.00,0.00,0.00,0.00,0.00,0.00,0.00,0,0,0,0,0,0,0,0,0.00,0.00,0.00,0.00,0.00,100,400,500,0000EA4B
149446,RECV,WR,996,993,993,-1410,173,173,173,-1464,0.00,0.00,0.00,0.00,0.00,0.00,0.00,0.00,0,0,0,0,0,0,0,0,0.00,0.00,0.00,0.00,0.00,0,0,0,00003CDD
149470,RECV,WR,996,993,993,192,173,173,173,-1464,0.00,0.00,0.00,0.00,0.00,0.00,0.00,0.00,0,0,0,0,0,0,0,0,0.00,0.00,0.00,0.00,0.00,0,0,0,0000463C
149481,HOVER,UPD,1500,1500,1500,0,1000,1000,1000,0,0.00,0.00,0.00,0.00,0.00,0.00,0.00,0.00,0,0,0,0,0,0,0,0,0.00,0.00,0.00,0.00,0.00,100,400,500,0000158E
149492,SDIST,UPD,0,0,0,75,0,0,0,0,100.00,75.00,450.00,300.95,89.81,67.36,450.00,337.74,255,75,0,0,290,67,0,0,0.00,0.00,0.00,0.00,0.00,0,0,0,00000C31
149508,HOVER,UPD,1500,1500,1500,0,1000,1000,1000,0,0.00,0.00,0.00,0.00,0.00,0.00,0.00,0.00,0,0,0,0,0,0,0,0,0.00,0.00,0.00,0.00,0.00,100,400,500,000044B3
149519,RECV,WR,996,993,993,-1410,173,173,173,-1464,0.00,0.00,0.00,0.00,0.00,0.00,0.00,0.00,0,0,0,0,0,0,0,0,0.00,0.00,0.00,0.00,0.00,0,0,0,00008EF7
149534,RECV,WR,996,993,993,192,173,173,173,-1464,0.00,0.00,0.00,0.00,0.00,0.00,0.00,0.00,0,0,0,0,0,0,0,0,0.00,0.00,0.00,0.00,0.00,0,0,0,00009D6B
149545,HOVER,UPD,1500,1500,1500,0,1000,1000,1000,0,0.00,0.00,0.00,0.00,0.00,0.00,0.00,0.00,0,0,0,0,0,0,0,0,0.00,0.00,0.00,0.00,0.00,100,400,500,00001161
149561,SDIST,UPD,0,0,0,75,0,0,0,0,100.00,75.00,450.00,303.96,83.97,62.97,450.00,345.04,306,75,0,0,350,62,0,0,0.00,0.00,0.00,0.00,0.00,0,0,0,0000A1B8
149572,RECV,WR,996,993,993,-1410,173,173,173,-1464,0.00,0.00,0.00,0.00,0.00,0.00,0.00,0.00,0,0,0,0,0,0,0,0,0.00,0.00,0.00,0.00,0.00,0,0,0,0000952B
149583,HOVER,UPD,1500,1500,1500,0,1000,1000,1000,0,0.00,0.00,0.00,0.00,0.00,0.00,0.00,0.00,0,0,0,0,0,0,0,0,0.00,0.00,0.00,0.00,0.00,100,400,500,0000B05C
149604,RECV,WR,996,993,993,192,173,173,173,-1464,0.00,0.00,0.00,0.00,0.00,0.00,0.00,0.00,0,0,0,0,0,0,0,0,0.00,0.00,0.00,0.00,0.00,0,0,0,000046E0
149620,HOVER,UPD,1500,1500,1500,0,1000,1000,1000,0,0.00,0.00,0.00,0.00,0.00,0.00,0.00,0.00,0,0,0,0,0,0,0,0,0.00,0.00,0.00,0.00,0.00,100,400,500,000037B8
149641,HOVER,UPD,1500,1500,1500,0,1000,1000,1000,0,0.00,0.00,0.00,0.00,0.00,0.00,0.00,0.00,0,0,0,0,0,0,0,0,0.00,0.00,0.00,0.00,0.00,100,400,500,00008466
149652,RECV,WR,996,993,993,-1410,173,173,173,-1464,0.00,0.00,0.00,0.00,0.00,0.00,0.00,0.00,0,0,0,0,0,0,0,0,0.00,0.00,0.00,0.00,0.00,0,0,0,000064C6
149668,HOVER,UPD,1500,1500,1500,0,1000,1000,1000,0,0.00,0.00,0.00,0.00,0.00,0.00,0.00,0.00,0,0,0,0,0,0,0,0,0.00,0.00,0.00,0.00,0.00,100,400,500,00008162
149669,RECV,WR,996,993,993,192,173,173,173,-1464,0.00,0.00,0.00,0.00,0.00,0.00,0.00,0.00,0,0,0,0,0,0,0,0,0.00,0.00,0.00,0.00,0.00,0,0,0,000046BE
149669,SDIST,UPD,0,0,0,69,0,0,0,0,90.21,67.65,450.00,337.24,92.50,69.37,450.00,334.38,388,67,0,0,320,69,0,0,0.00,0.00,0.00,0.00,0.00,0,0,0,00002829
149701,HOVER,UPD,1500,1500,1500,0,1000,1000,1000,0,0.00,0.00,0.00,0.00,0.00,0.00,0.00,0.00,0,0,0,0,0,0,0,0,0.00,0.00,0.00,0.00,0.00,100,400,500,0000415F
149722,HOVER,UPD,1500,1500,1500,0,1000,1000,1000,0,0.00,0.00,0.00,0.00,0.00,0.00,0.00,0.00,0,0,0,0,0,0,0,0,0.00,0.00,0.00,0.00,0.00,100,400,500,0000926A
149722,RECV,WR,996,993,993,-1410,173,173,173,-1464,0.00,0.00,0.00,0.00,0.00,0.00,0.00,0.00,0,0,0,0,0,0,0,0,0.00,0.00,0.00,0.00,0.00,0,0,0,00006EC6
149750,RECV,WR,996,993,993,192,173,173,173,-1464,0.00,0.00,0.00,0.00,0.00,0.00,0.00,0.00,0,0,0,0,0,0,0,0,0.00,0.00,0.00,0.00,0.00,0,0,0,00006CF0
149761,HOVER,UPD,1500,1500,1500,0,1000,1000,1000,0,0.00,0.00,0.00,0.00,0.00,0.00,0.00,0.00,0,0,0,0,0,0,0,0,0.00,0.00,0.00,0.00,0.00,100,400,500,0000C729
149761,SDIST,UPD,0,0,0,72,0,0,0,0,67.65,50.74,450.00,365.44,96.98,72.74,450.00,328.77,392,50,0,0,320,72,0,0,0.00,0.00,0.00,0.00,0.00,0,0,0,00008CB2
149788,HOVER,UPD,1500,1500,1500,0,1000,1000,1000,0,0.00,0.00,0.00,0.00,0.00,0.00,0.00,0.00,0,0,0,0,0,0,0,0,0.00,0.00,0.00,0.00,0.00,100,400,500,0000DEE0
149799,RECV,WR,996,993,993,-1410,173,173,173,-1464,0.00,0.00,0.00,0.00,0.00,0.00,0.00,0.00,0,0,0,0,0,0,0,0,0.00,0.00,0.00,0.00,0.00,0,0,0,0000C81D
149814,RECV,WR,996,993,993,192,173,173,173,-1464,0.00,0.00,0.00,0.00,0.00,0.00,0.00,0.00,0,0,0,0,0,0,0,0,0.00,0.00,0.00,0.00,0.00,0,0,0,00008615
149825,HOVER,UPD,1500,1500,1500,0,1000,1000,1000,0,0.00,0.00,0.00,0.00,0.00,0.00,0.00,0.00,0,0,0,0,0,0,0,0,0.00,0.00,0.00,0.00,0.00,100,400,500,00004728
149841,SDIST,UPD,0,0,0,75,0,0,0,0,73.23,54.92,450.00,358.47,100.00,75.00,450.00,295.76,352,54,0,0,230,75,0,0,0.00,0.00,0.00,0.00,0.00,0,0,0,000059C0
149852,RECV,WR,996,993,993,-1410,173,173,173,-1464,0.00,0.00,0.00,0.00,0.00,0.00,0.00,0.00,0,0,0,0,0,0,0,0,0.00,0.00,0.00,0.00,0.00,0,0,0,0000D5FB
149863,HOVER,UPD,1500,1500,1500,0,1000,1000,1000,0,0.00,0.00,0.00,0.00,0.00,0.00,0.00,0.00,0,0,0,0,0,0,0,0,0.00,0.00,0.00,0.00,0.00,100,400,500,0000F163
149884,RECV,WR,996,993,993,192,173,173,173,-1464,0.00,0.00,0.00,0.00,0.00,0.00,0.00,0.00,0,0,0,0,0,0,0,0,0.00,0.00,0.00,0.00,0.00,0,0,0,00008D8D
149900,HOVER,UPD,1500,1500,1500,0,1000,1000,1000,0,0.00,0.00,0.00,0.00,0.00,0.00,0.00,0.00,0,0,0,0,0,0,0,0,0.00,0.00,0.00,0.00,0.00,100,400,500,0000E76F
149921,HOVER,UPD,1500,1500,1500,0,1000,1000,1000,0,0.00,0.00,0.00,0.00,0.00,0.00,0.00,0.00,0,0,0,0,0,0,0,0,0.00,0.00,0.00,0.00,0.00,100,400,500,00005F0A
149932,RECV,WR,996,993,993,-1410,173,173,173,-1464,0.00,0.00,0.00,0.00,0.00,0.00,0.00,0.00,0,0,0,0,0,0,0,0,0.00,0.00,0.00,0.00,0.00,0,0,0,0000C728
149944,SDIST,UPD,0,0,0,75,0,0,0,0,85.76,64.32,450.00,342.80,100.00,75.00,450.00,243.02,319,64,0,0,190,75,0,0,0.00,0.00,0.00,0.00,0.00,0,0,0,00001DFA
149955,RECV,WR,996,993,993,192,173,173,173,-1464,0.00,0.00,0.00,0.00,0.00,0.00,0.00,0.00,0,0,0,0,0,0,0,0,0.00,0.00,0.00,0.00,0.00,0,0,0,000066C1
149966,HOVER,UPD,1500,1500,1500,0,1000,1000,1000,0,0.00,0.00,0.00,0.00,0.00,0.00,0.00,0.00,0,0,0,0,0,0,0,0,0.00,0.00,0.00,0.00,0.00,100,400,500,0000DCE9
149997,HOVER,UPD,1500,1500,1500,0,1000,1000,1000,0,0.00,0.00,0.00,0.00,0.00,0.00,0.00,0.00,0,0,0,0,0,0,0,0,0.00,0.00,0.00,0.00,0.00,100,400,500,0000B6B7
149999,RECV,WR,996,993,993,-1410,173,173,173,-1464,0.00,0.00,0.00,0.00,0.00,0.00,0.00,0.00,0,0,0,0,0,0,0,0,0.00,0.00,0.00,0.00,0.00,0,0,0,00007920
150023,RECV,WR,996,993,993,192,173,173,173,-1464,0.00,0.00,0.00,0.00,0.00,0.00,0.00,0.00,0,0,0,0,0,0,0,0,0.00,0.00,0.00,0.00,0.00,0,0,0,0000FA52
150034,HOVER,UPD,1500,1500,1500,0,1000,1000,1000,0,0.00,0.00,0.00,0.00,0.00,0.00,0.00,0.00,0,0,0,0,0,0,0,0,0.00,0.00,0.00,0.00,0.00,100,400,500,00001206
150045,SDIST,UPD,0,0,0,75,0,0,0,0,88.35,66.27,450.00,339.56,100.00,75.00,450.00,247.27,335,66,0,0,250,75,0,0,0.00,0.00,0.00,0.00,0.00,0,0,0,00002FD1
150061,HOVER,UPD,1500,1500,1500,0,1000,1000,1000,0,0.00,0.00,0.00,0.00,0.00,0.00,0.00,0.00,0,0,0,0,0,0,0,0,0.00,0.00,0.00,0.00,0.00,100,400,500,00003443
150072,RECV,WR,996,993,993,-1410,173,173,173,-1464,0.00,0.00,0.00,0.00,0.00,0.00,0.00,0.00,0,0,0,0,0,0,0,0,0.00,0.00,0.00,0.00,0.00,0,0,0,0000A0E6
150087,RECV,WR,996,993,993,192,173,173,173,-1464,0.00,0.00,0.00,0.00,0.00,0.00,0.00,0.00,0,0,0,0,0,0,0,0,0.00,0.00,0.00,0.00,0.00,0,0,0,00006434
150098,HOVER,UPD,1500,1500,1500,0,1000,1000,1000,0,0.00,0.00,0.00,0.00,0.00,0.00,0.00,0.00,0,0,0,0,0,0,0,0,0.00,0.00,0.00,0.00,0.00,100,400,500,0000E37C
150114,SDIST,UPD,0,0,0,75,0,0,0,0,76.30,57.23,450.00,354.62,100.00,75.00,450.00,281.14,386,57,0,0,330,75,0,0,0.00,0.00,0.00,0.00,0.00,0,0,0,0000106A
