TIME,TASK,GROUP,CH_R,CH_P,CH_Y,CH_H,CH_T,ARMING,AUX2,AUX3,float0,float1,float2,float3,float4,float5,float6,float7,ldata0,ldata1,ldata2,ldata3,ldata4,ldata5,ldata6,ldata7,pidRoll,pidPitch,pidYaw,pidThrust,pidHover,HOVER_MINIMAL_HEIGHT,HOVER_MIN_DISTANCE,HOVER_MAX_DISTANCE,CRC
13538,RECV,WR,996,993,993,-1410,173,173,173,-1464,0.00,0.00,0.00,0.00,0.00,0.00,0.00,0.00,0,0,0,0,0,0,0,0,0.00,0.00,0.00,0.00,0.00,0,0,0,000068B9
13553,RECV,WR,996,993,993,192,173,173,173,-1464,0.00,0.00,0.00,0.00,0.00,0.00,0.00,0.00,0,0,0,0,0,0,0,0,0.00,0.00,0.00,0.00,0.00,0,0,0,00004DE1
13564,HOVER,UPD,1500,1500,1500,0,1000,1000,1000,0,0.00,0.00,0.00,0.00,0.00,0.00,0.00,0.00,0,0,0,0,0,0,0,0,0.00,0.00,0.00,0.00,0.00,100,400,500,0000C978
13580,SDIST,UPD,0,0,0,26,0,0,0,0,16.35,12.26,450.00,429.56,34.98,26.24,450.00,406.27,431,12,0,0,400,26,0,0,0.00,0.00,0.00,0.00,0.00,0,0,0,000001FE
13591,RECV,WR,996,993,993,-1410,173,173,173,-1464,0.00,0.00,0.00,0.00,0.00,0.00,0.00,0.00,0,0,0,0,0,0,0,0,0.00,0.00,0.00,0.00,0.00,0,0,0,0000B6EC
13602,HOVER,UPD,1500,1500,1500,0,1000,1000,1000,0,0.00,0.00,0.00,0.00,0.00,0.00,0.00,0.00,0,0,0,0,0,0,0,0,0.00,0.00,0.00,0.00,0.00,100,400,500,0000B159
13613,RECV,WR,996,993,993,192,173,173,173,-1464,0.00,0.00,0.00,0.00,0.00,0.00,0.00,0.00,0,0,0,0,0,0,0,0,0.00,0.00,0.00,0.00,0.00,0,0,0,000060FD
13639,HOVER,UPD,1500,1500,1500,0,1000,1000,1000,0,0.00,0.00,0.00,0.00,0.00,0.00,0.00,0.00,0,0,0,0,0,0,0,0,0.00,0.00,0.00,0.00,0.00,100,400,500,000011FB
13660,HOVER,UPD,1500,1500,1500,0,1000,1000,1000,0,0.00,0.00,0.00,0.00,0.00,0.00,0.00,0.00,0,0,0,0,0,0,0,0,0.00,0.00,0.00,0.00,0.00,100,400,500,00005C7F
13671,RECV,WR,996,993,993,-1410,173,173,173,-1464,0.00,0.00,0.00,0.00,0.00,0.00,0.00,0.00,0,0,0,0,0,0,0,0,0.00,0.00,0.00,0.00,0.00,0,0,0,0000E2D5
13686,SDIST,UPD,0,0,0,26,0,0,0,0,16.36,12.27,450.00,429.55,35.45,26.59,450.00,405.68,429,12,0,0,400,26,0,0,0.00,0.00,0.00,0.00,0.00,0,0,0,00003531
13697,HOVER,UPD,1500,1500,1500,0,1000,1000,1000,0,0.00,0.00,0.00,0.00,0.00,0.00,0.00,0.00,0,0,0,0,0,0,0,0,0.00,0.00,0.00,0.00,0.00,100,400,500,00008BD1
13698,RECV,WR,996,993,993,192,173,173,173,-1464,0.00,0.00,0.00,0.00,0.00,0.00,0.00,0.00,0,0,0,0,0,0,0,0,0.00,0.00,0.00,0.00,0.00,0,0,0,000040B1
13724,HOVER,UPD,1500,1500,1500,0,1000,1000,1000,0,0.00,0.00,0.00,0.00,0.00,0.00,0.00,0.00,0,0,0,0,0,0,0,0,0.00,0.00,0.00,0.00,0.00,100,400,500,00004FE6
13745,HOVER,UPD,1500,1500,1500,0,1000,1000,1000,0,0.00,0.00,0.00,0.00,0.00,0.00,0.00,0.00,0,0,0,0,0,0,0,0,0.00,0.00,0.00,0.00,0.00,100,400,500,0000FC38
13756,RECV,WR,996,993,993,-1410,173,173,173,-1464,0.00,0.00,0.00,0.00,0.00,0.00,0.00,0.00,0,0,0,0,0,0,0,0,0.00,0.00,0.00,0.00,0.00,0,0,0,00008B93
13772,HOVER,UPD,1500,1500,1500,0,1000,1000,1000,0,0.00,0.00,0.00,0.00,0.00,0.00,0.00,0.00,0,0,0,0,0,0,0,0,0.00,0.00,0.00,0.00,0.00,100,400,500,0000375B
13773,RECV,WR,996,993,993,192,173,173,173,-1464,0.00,0.00,0.00,0.00,0.00,0.00,0.00,0.00,0,0,0,0,0,0,0,0,0.00,0.00,0.00,0.00,0.00,0,0,0,0000DF13
13773,SDIST,UPD,0,0,0,26,0,0,0,0,16.39,12.29,450.00,429.52,35.89,26.92,450.00,405.14,428,12,0,0,400,26,0,0,0.00,0.00,0.00,0.00,0.00,0,0,0,0000B3CF
13805,HOVER,UPD,1500,1500,1500,0,1000,1000,1000,0,0.00,0.00,0.00,0.00,0.00,0.00,0.00,0.00,0,0,0,0,0,0,0,0,0.00,0.00,0.00,0.00,0.00,100,400,500,0000AA99
13826,HOVER,UPD,1500,1500,1500,0,1000,1000,1000,0,0.00,0.00,0.00,0.00,0.00,0.00,0.00,0.00,0,0,0,0,0,0,0,0,0.00,0.00,0.00,0.00,0.00,100,400,500,000079AC
13826,RECV,WR,996,993,993,-1410,173,173,173,-1464,0.00,0.00,0.00,0.00,0.00,0.00,0.00,0.00,0,0,0,0,0,0,0,0,0.00,0.00,0.00,0.00,0.00,0,0,0,000030AE
13854,RECV,WR,996,993,993,192,173,173,173,-1464,0.00,0.00,0.00,0.00,0.00,0.00,0.00,0.00,0,0,0,0,0,0,0,0,0.00,0.00,0.00,0.00,0.00,0,0,0,0000D4B8
13865,HOVER,UPD,1500,1500,1500,0,1000,1000,1000,0,0.00,0.00,0.00,0.00,0.00,0.00,0.00,0.00,0,0,0,0,0,0,0,0,0.00,0.00,0.00,0.00,0.00,100,400,500,00002CEF
13865,SDIST,UPD,0,0,0,27,0,0,0,0,16.43,12.32,450.00,429.46,36.29,27.21,450.00,404.64,427,12,0,0,400,27,0,0,0.00,0.00,0.00,0.00,0.00,0,0,0,00000020
13892,HOVER,UPD,1500,1500,1500,0,1000,1000,1000,0,0.00,0.00,0.00,0.00,0.00,0.00,0.00,0.00,0,0,0,0,0,0,0,0,0.00,0.00,0.00,0.00,0.00,100,400,500,0000FB41
13903,RECV,WR,996,993,993,-1410,173,173,173,-1464,0.00,0.00,0.00,0.00,0.00,0.00,0.00,0.00,0,0,0,0,0,0,0,0,0.00,0.00,0.00,0.00,0.00,0,0,0,000039B5
13918,RECV,WR,996,993,993,192,173,173,173,-1464,0.00,0.00,0.00,0.00,0.00,0.00,0.00,0.00,0,0,0,0,0,0,0,0,0.00,0.00,0.00,0.00,0.00,0,0,0,000033E2
13929,HOVER,UPD,1500,1500,1500,0,1000,1000,1000,0,0.00,0.00,0.00,0.00,0.00,0.00,0.00,0.00,0,0,0,0,0,0,0,0,0.00,0.00,0.00,0.00,0.00,100,400,500,00008217
13945,SDIST,UPD,0,0,0,27,0,0,0,0,16.47,12.36,450.00,429.41,36.64,27.48,450.00,404.20,427,12,0,0,400,27,0,0,0.00,0.00,0.00,0.00,0.00,0,0,0,00002F3E
13956,RECV,WR,996,993,993,-1410,173,173,173,-1464,0.00,0.00,0.00,0.00,0.00,0.00,0.00,0.00,0,0,0,0,0,0,0,0,0.00,0.00,0.00,0.00,0.00,0,0,0,00003AAE
13967,HOVER,UPD,1500,1500,1500,0,1000,1000,1000,0,0.00,0.00,0.00,0.00,0.00,0.00,0.00,0.00,0,0,0,0,0,0,0,0,0.00,0.00,0.00,0.00,0.00,100,400,500,0000893D
13978,RECV,WR,996,993,993,192,173,173,173,-1464,0.00,0.00,0.00,0.00,0.00,0.00,0.00,0.00,0,0,0,0,0,0,0,0,0.00,0.00,0.00,0.00,0.00,0,0,0,00003432
14004,HOVER,UPD,1500,1500,1500,0,1000,1000,1000,0,0.00,0.00,0.00,0.00,0.00,0.00,0.00,0.00,0,0,0,0,0,0,0,0,0.00,0.00,0.00,0.00,0.00,100,400,500,00009E0A
14025,HOVER,UPD,1500,1500,1500,0,1000,1000,1000,0,0.00,0.00,0.00,0.00,0.00,0.00,0.00,0.00,0,0,0,0,0,0,0,0,0.00,0.00,0.00,0.00,0.00,100,400,500,0000266F
14036,RECV,WR,996,993,993,-1410,173,173,173,-1464,0.00,0.00,0.00,0.00,0.00,0.00,0.00,0.00,0,0,0,0,0,0,0,0,0.00,0.00,0.00,0.00,0.00,0,0,0,00004C8A
14052,HOVER,UPD,1500,1500,1500,0,1000,1000,1000,0,0.00,0.00,0.00,0.00,0.00,0.00,0.00,0.00,0,0,0,0,0,0,0,0,0.00,0.00,0.00,0.00,0.00,100,400,500,0000E6B7
14053,RECV,WR,996,993,993,192,173,173,173,-1464,0.00,0.00,0.00,0.00,0.00,0.00,0.00,0.00,0,0,0,0,0,0,0,0,0.00,0.00,0.00,0.00,0.00,0,0,0,00007F5C
14053,SDIST,UPD,0,0,0,27,0,0,0,0,16.48,12.36,450.00,429.40,36.96,27.72,450.00,403.80,429,12,0,0,400,27,0,0,0.00,0.00,0.00,0.00,0.00,0,0,0,0000DFEC
14085,HOVER,UPD,1500,1500,1500,0,1000,1000,1000,0,0.00,0.00,0.00,0.00,0.00,0.00,0.00,0.00,0,0,0,0,0,0,0,0,0.00,0.00,0.00,0.00,0.00,100,400,500,0000BCD4
14106,HOVER,UPD,1500,1500,1500,0,1000,1000,1000,0,0.00,0.00,0.00,0.00,0.00,0.00,0.00,0.00,0,0,0,0,0,0,0,0,0.00,0.00,0.00,0.00,0.00,100,400,500,00003BD8
14106,RECV,WR,996,993,993,-1410,173,173,173,-1464,0.00,0.00,0.00,0.00,0.00,0.00,0.00,0.00,0,0,0,0,0,0,0,0,0.00,0.00,0.00,0.00,0.00,0,0,0,000025C6
14134,RECV,WR,996,993,993,192,173,173,173,-1464,0.00,0.00,0.00,0.00,0.00,0.00,0.00,0.00,0,0,0,0,0,0,0,0,0.00,0.00,0.00,0.00,0.00,0,0,0,0000B03A
14145,HOVER,UPD,1500,1500,1500,0,1000,1000,1000,0,0.00,0.00,0.00,0.00,0.00,0.00,0.00,0.00,0,0,0,0,0,0,0,0,0.00,0.00,0.00,0.00,0.00,100,400,500,00006E9B
14145,SDIST,UPD,0,0,0,27,0,0,0,0,16.49,12.37,450.00,429.39,37.24,27.93,450.00,403.44,429,12,0,0,400,27,0,0,0.00,0.00,0.00,0.00,0.00,0,0,0,0000F96E
14172,HOVER,UPD,1500,1500,1500,0,1000,1000,1000,0,0.00,0.00,0.00,0.00,0.00,0.00,0.00,0.00,0,0,0,0,0,0,0,0,0.00,0.00,0.00,0.00,0.00,100,400,500,0000A5F8
14183,RECV,WR,996,993,993,-1410,173,173,173,-1464,0.00,0.00,0.00,0.00,0.00,0.00,0.00,0.00,0,0,0,0,0,0,0,0,0.00,0.00,0.00,0.00,0.00,0,0,0,00009BDA
14198,RECV,WR,996,993,993,192,173,173,173,-1464,0.00,0.00,0.00,0.00,0.00,0.00,0.00,0.00,0,0,0,0,0,0,0,0,0.00,0.00,0.00,0.00,0.00,0,0,0,00001251
14209,HOVER,UPD,1500,1500,1500,0,1000,1000,1000,0,0.00,0.00,0.00,0.00,0.00,0.00,0.00,0.00,0,0,0,0,0,0,0,0,0.00,0.00,0.00,0.00,0.00,100,400,500,00004D46
14225,SDIST,UPD,0,0,0,28,0,0,0,0,16.46,12.35,450.00,429.42,37.50,28.12,450.00,403.13,431,12,0,0,400,28,0,0,0.00,0.00,0.00,0.00,0.00,0,0,0,000067DD
14236,RECV,WR,996,993,993,-1410,173,173,173,-1464,0.00,0.00,0.00,0.00,0.00,0.00,0.00,0.00,0,0,0,0,0,0,0,0,0.00,0.00,0.00,0.00,0.00,0,0,0,0000CCF8
14247,HOVER,UPD,1500,1500,1500,0,1000,1000,1000,0,0.00,0.00,0.00,0.00,0.00,0.00,0.00,0.00,0,0,0,0,0,0,0,0,0.00,0.00,0.00,0.00,0.00,100,400,500,0000466C
14258,RECV,WR,996,993,993,192,173,173,173,-1464,0.00,0.00,0.00,0.00,0.00,0.00,0.00,0.00,0,0,0,0,0,0,0,0,0.00,0.00,0.00,0.00,0.00,0,0,0,0000C592
14284,HOVER,UPD,1500,1500,1500,0,1000,1000,1000,0,0.00,0.00,0.00,0.00,0.00,0.00,0.00,0.00,0,0,0,0,0,0,0,0,0.00,0.00,0.00,0.00,0.00,100,400,500,00000459
14305,HOVER,UPD,1500,1500,1500,0,1000,1000,1000,0,0.00,0.00,0.00,0.00,0.00,0.00,0.00,0.00,0,0,0,0,0,0,0,0,0.00,0.00,0.00,0.00,0.00,100,400,500,0000E805
14316,RECV,WR,996,993,993,-1410,173,173,173,-1464,0.00,0.00,0.00,0.00,0.00,0.00,0.00,0.00,0,0,0,0,0,0,0,0,0.00,0.00,0.00,0.00,0.00,0,0,0,0000BD67
14331,SDIST,UPD,0,0,0,28,0,0,0,0,16.49,12.36,450.00,429.39,37.72,28.29,450.00,402.85,428,12,0,0,400,28,0,0,0.00,0.00,0.00,0.00,0.00,0,0,0,0000E72F
14342,HOVER,UPD,1500,1500,1500,0,1000,1000,1000,0,0.00,0.00,0.00,0.00,0.00,0.00,0.00,0.00,0,0,0,0,0,0,0,0,0.00,0.00,0.00,0.00,0.00,100,400,500,00006BE6
14343,RECV,WR,996,993,993,192,173,173,173,-1464,0.00,0.00,0.00,0.00,0.00,0.00,0.00,0.00,0,0,0,0,0,0,0,0,0.00,0.00,0.00,0.00,0.00,0,0,0,00005678
14369,HOVER,UPD,1500,1500,1500,0,1000,1000,1000,0,0.00,0.00,0.00,0.00,0.00,0.00,0.00,0.00,0,0,0,0,0,0,0,0,0.00,0.00,0.00,0.00,0.00,100,400,500,000005B2
14390,HOVER,UPD,1500,1500,1500,0,1000,1000,1000,0,0.00,0.00,0.00,0.00,0.00,0.00,0.00,0.00,0,0,0,0,0,0,0,0,0.00,0.00,0.00,0.00,0.00,100,400,500,0000D28D
14401,RECV,WR,996,993,993,-1410,173,173,173,-1464,0.00,0.00,0.00,0.00,0.00,0.00,0.00,0.00,0,0,0,0,0,0,0,0,0.00,0.00,0.00,0.00,0.00,0,0,0,00006DE3
14417,HOVER,UPD,1500,1500,1500,0,1000,1000,1000,0,0.00,0.00,0.00,0.00,0.00,0.00,0.00,0.00,0,0,0,0,0,0,0,0,0.00,0.00,0.00,0.00,0.00,100,400,500,0000046F
14418,RECV,WR,996,993,993,192,173,173,173,-1464,0.00,0.00,0.00,0.00,0.00,0.00,0.00,0.00,0,0,0,0,0,0,0,0,0.00,0.00,0.00,0.00,0.00,0,0,0,0000900A
14418,SDIST,UPD,0,0,0,28,0,0,0,0,16.46,12.34,450.00,429.43,37.92,28.44,450.00,402.61,431,12,0,0,400,28,0,0,0.00,0.00,0.00,0.00,0.00,0,0,0,000033B4
14450,HOVER,UPD,1500,1500,1500,0,1000,1000,1000,0,0.00,0.00,0.00,0.00,0.00,0.00,0.00,0.00,0,0,0,0,0,0,0,0,0.00,0.00,0.00,0.00,0.00,100,400,500,0000878C
14471,HOVER,UPD,1500,1500,1500,0,1000,1000,1000,0,0.00,0.00,0.00,0.00,0.00,0.00,0.00,0.00,0,0,0,0,0,0,0,0,0.00,0.00,0.00,0.00,0.00,100,400,500,00003FE9
14471,RECV,WR,996,993,993,-1410,173,173,173,-1464,0.00,0.00,0.00,0.00,0.00,0.00,0.00,0.00,0,0,0,0,0,0,0,0,0.00,0.00,0.00,0.00,0.00,0,0,0,000027DA
14499,RECV,WR,996,993,993,192,173,173,173,-1464,0.00,0.00,0.00,0.00,0.00,0.00,0.00,0.00,0,0,0,0,0,0,0,0,0.00,0.00,0.00,0.00,0.00,0,0,0,0000C740
14510,HOVER,UPD,1500,1500,1500,0,1000,1000,1000,0,0.00,0.00,0.00,0.00,0.00,0.00,0.00,0.00,0,0,0,0,0,0,0,0,0.00,0.00,0.00,0.00,0.00,100,400,500,000042B5
14510,SDIST,UPD,0,0,0,28,0,0,0,0,16.50,12.38,450.00,429.37,38.09,28.57,450.00,402.39,427,12,0,0,400,28,0,0,0.00,0.00,0.00,0.00,0.00,0,0,0,0000D71F
14537,HOVER,UPD,1500,1500,1500,0,1000,1000,1000,0,0.00,0.00,0.00,0.00,0.00,0.00,0.00,0.00,0,0,0,0,0,0,0,0,0.00,0.00,0.00,0.00,0.00,100,400,500,00004720
14548,RECV,WR,996,993,993,-1410,173,173,173,-1464,0.00,0.00,0.00,0.00,0.00,0.00,0.00,0.00,0,0,0,0,0,0,0,0,0.00,0.00,0.00,0.00,0.00,0,0,0,000067FD
14563,RECV,WR,996,993,993,192,173,173,173,-1464,0.00,0.00,0.00,0.00,0.00,0.00,0.00,0.00,0,0,0,0,0,0,0,0,0.00,0.00,0.00,0.00,0.00,0,0,0,00000430
14574,HOVER,UPD,1500,1500,1500,0,1000,1000,1000,0,0.00,0.00,0.00,0.00,0.00,0.00,0.00,0.00,0,0,0,0,0,0,0,0,0.00,0.00,0.00,0.00,0.00,100,400,500,00001263
14590,SDIST,UPD,0,0,0,28,0,0,0,0,16.51,12.38,450.00,429.37,38.24,28.68,450.00,402.20,429,12,0,0,400,28,0,0,0.00,0.00,0.00,0.00,0.00,0,0,0,0000536B
14601,RECV,WR,996,993,993,-1410,173,173,173,-1464,0.00,0.00,0.00,0.00,0.00,0.00,0.00,0.00,0,0,0,0,0,0,0,0,0.00,0.00,0.00,0.00,0.00,0,0,0,0000ED91
14612,HOVER,UPD,1500,1500,1500,0,1000,1000,1000,0,0.00,0.00,0.00,0.00,0.00,0.00,0.00,0.00,0,0,0,0,0,0,0,0,0.00,0.00,0.00,0.00,0.00,100,400,500,00006A42
14623,RECV,WR,996,993,993,192,173,173,173,-1464,0.00,0.00,0.00,0.00,0.00,0.00,0.00,0.00,0,0,0,0,0,0,0,0,0.00,0.00,0.00,0.00,0.00,0,0,0,0000292C
14649,HOVER,UPD,1500,1500,1500,0,1000,1000,1000,0,0.00,0.00,0.00,0.00,0.00,0.00,0.00,0.00,0,0,0,0,0,0,0,0,0.00,0.00,0.00,0.00,0.00,100,400,500,00004C96
14670,HOVER,UPD,1500,1500,1500,0,1000,1000,1000,0,0.00,0.00,0.00,0.00,0.00,0.00,0.00,0.00,0,0,0,0,0,0,0,0,0.00,0.00,0.00,0.00,0.00,100,400,500,00008764
14681,RECV,WR,996,993,993,-1410,173,173,173,-1464,0.00,0.00,0.00,0.00,0.00,0.00,0.00,0.00,0,0,0,0,0,0,0,0,0.00,0.00,0.00,0.00,0.00,0,0,0,00002B09
14697,HOVER,UPD,1500,1500,1500,0,1000,1000,1000,0,0.00,0.00,0.00,0.00,0.00,0.00,0.00,0.00,0,0,0,0,0,0,0,0,0.00,0.00,0.00,0.00,0.00,100,400,500,00009E3C
14698,RECV,WR,996,993,993,192,173,173,173,-1464,0.00,0.00,0.00,0.00,0.00,0.00,0.00,0.00,0,0,0,0,0,0,0,0,0.00,0.00,0.00,0.00,0.00,0,0,0,00000A88
14698,SDIST,UPD,0,0,0,28,0,0,0,0,16.51,12.39,450.00,429.36,38.38,28.79,450.00,402.02,429,12,0,0,400,28,0,0,0.00,0.00,0.00,0.00,0.00,0,0,0,000018F8
14730,HOVER,UPD,1500,1500,1500,0,1000,1000,1000,0,0.00,0.00,0.00,0.00,0.00,0.00,0.00,0.00,0,0,0,0,0,0,0,0,0.00,0.00,0.00,0.00,0.00,100,400,500,0000425D
14751,HOVER,UPD,1500,1500,1500,0,1000,1000,1000,0,0.00,0.00,0.00,0.00,0.00,0.00,0.00,0.00,0,0,0,0,0,0,0,0,0.00,0.00,0.00,0.00,0.00,100,400,500,0000F183
14751,RECV,WR,996,993,993,-1410,173,173,173,-1464,0.00,0.00,0.00,0.00,0.00,0.00,0.00,0.00,0,0,0,0,0,0,0,0,0.00,0.00,0.00,0.00,0.00,0,0,0,0000D637
14779,RECV,WR,996,993,993,192,173,173,173,-1464,0.00,0.00,0.00,0.00,0.00,0.00,0.00,0.00,0,0,0,0,0,0,0,0,0.00,0.00,0.00,0.00,0.00,0,0,0,0000E22C
14790,HOVER,UPD,1500,1500,1500,0,1000,1000,1000,0,0.00,0.00,0.00,0.00,0.00,0.00,0.00,0.00,0,0,0,0,0,0,0,0,0.00,0.00,0.00,0.00,0.00,100,400,500,0000D8E6
14790,SDIST,UPD,0,0,0,28,0,0,0,0,16.50,12.38,450.00,429.37,38.50,28.88,450.00,401.87,430,12,0,0,400,28,0,0,0.00,0.00,0.00,0.00,0.00,0,0,0,0000B7FC
14817,HOVER,UPD,1500,1500,1500,0,1000,1000,1000,0,0.00,0.00,0.00,0.00,0.00,0.00,0.00,0.00,0,0,0,0,0,0,0,0,0.00,0.00,0.00,0.00,0.00,100,400,500,00001AD2
14828,RECV,WR,996,993,993,-1410,173,173,173,-1464,0.00,0.00,0.00,0.00,0.00,0.00,0.00,0.00,0,0,0,0,0,0,0,0,0.00,0.00,0.00,0.00,0.00,0,0,0,00004461
14843,RECV,WR,996,993,993,192,173,173,173,-1464,0.00,0.00,0.00,0.00,0.00,0.00,0.00,0.00,0,0,0,0,0,0,0,0,0.00,0.00,0.00,0.00,0.00,0,0,0,00001F4E
14854,HOVER,UPD,1500,1500,1500,0,1000,1000,1000,0,0.00,0.00,0.00,0.00,0.00,0.00,0.00,0.00,0,0,0,0,0,0,0,0,0.00,0.00,0.00,0.00,0.00,100,400,500,00004F91
14870,SDIST,UPD,0,0,0,28,0,0,0,0,16.53,12.40,450.00,429.34,38.61,28.96,450.00,401.74,428,12,0,0,400,28,0,0,0.00,0.00,0.00,0.00,0.00,0,0,0,0000F5B8
14881,RECV,WR,996,993,993,-1410,173,173,173,-1464,0.00,0.00,0.00,0.00,0.00,0.00,0.00,0.00,0,0,0,0,0,0,0,0,0.00,0.00,0.00,0.00,0.00,0,0,0,00009A34
14892,HOVER,UPD,1500,1500,1500,0,1000,1000,1000,0,0.00,0.00,0.00,0.00,0.00,0.00,0.00,0.00,0,0,0,0,0,0,0,0,0.00,0.00,0.00,0.00,0.00,100,400,500,0000EEAC
14903,RECV,WR,996,993,993,192,173,173,173,-1464,0.00,0.00,0.00,0.00,0.00,0.00,0.00,0.00,0,0,0,0,0,0,0,0,0.00,0.00,0.00,0.00,0.00,0,0,0,0000520F
14929,HOVER,UPD,1500,1500,1500,0,1000,1000,1000,0,0.00,0.00,0.00,0.00,0.00,0.00,0.00,0.00,0,0,0,0,0,0,0,0,0.00,0.00,0.00,0.00,0.00,100,400,500,000097FA
14950,HOVER,UPD,1500,1500,1500,0,1000,1000,1000,0,0.00,0.00,0.00,0.00,0.00,0.00,0.00,0.00,0,0,0,0,0,0,0,0,0.00,0.00,0.00,0.00,0.00,100,400,500,000057B3
14961,RECV,WR,996,993,993,-1410,173,173,173,-1464,0.00,0.00,0.00,0.00,0.00,0.00,0.00,0.00,0,0,0,0,0,0,0,0,0.00,0.00,0.00,0.00,0.00,0,0,0,00004E7F
14976,SDIST,UPD,0,0,0,29,0,0,0,0,16.55,12.41,450.00,429.31,38.71,29.03,450.00,401.61,428,12,0,0,400,29,0,0,0.00,0.00,0.00,0.00,0.00,0,0,0,00006165
14987,HOVER,UPD,1500,1500,1500,0,1000,1000,1000,0,0.00,0.00,0.00,0.00,0.00,0.00,0.00,0.00,0,0,0,0,0,0,0,0,0.00,0.00,0.00,0.00,0.00,100,400,500,00000DD0
14988,RECV,WR,996,993,993,192,173,173,173,-1464,0.00,0.00,0.00,0.00,0.00,0.00,0.00,0.00,0,0,0,0,0,0,0,0,0.00,0.00,0.00,0.00,0.00,0,0,0,00007243
15014,HOVER,UPD,1500,1500,1500,0,1000,1000,1000,0,0.00,0.00,0.00,0.00,0.00,0.00,0.00,0.00,0,0,0,0,0,0,0,0,0.00,0.00,0.00,0.00,0.00,100,400,500,0000EA7E
15035,HOVER,UPD,1500,1500,1500,0,1000,1000,1000,0,0.00,0.00,0.00,0.00,0.00,0.00,0.00,0.00,0,0,0,0,0,0,0,0,0.00,0.00,0.00,0.00,0.00,100,400,500,0000521B
15046,RECV,WR,996,993,993,-1410,173,173,173,-1464,0.00,0.00,0.00,0.00,0.00,0.00,0.00,0.00,0,0,0,0,0,0,0,0,0.00,0.00,0.00,0.00,0.00,0,0,0,00007777
15062,HOVER,UPD,1500,1500,1500,0,1000,1000,1000,0,0.00,0.00,0.00,0.00,0.00,0.00,0.00,0.00,0,0,0,0,0,0,0,0,0.00,0.00,0.00,0.00,0.00,100,400,500,00001F0E
15063,RECV,WR,996,993,993,192,173,173,173,-1464,0.00,0.00,0.00,0.00,0.00,0.00,0.00,0.00,0,0,0,0,0,0,0,0,0.00,0.00,0.00,0.00,0.00,0,0,0,00006467
15063,SDIST,UPD,0,0,0,29,0,0,0,0,16.56,12.42,450.00,429.30,38.80,29.10,450.00,401.50,429,12,0,0,400,29,0,0,0.00,0.00,0.00,0.00,0.00,0,0,0,00005CD1
15095,HOVER,UPD,1500,1500,1500,0,1000,1000,1000,0,0.00,0.00,0.00,0.00,0.00,0.00,0.00,0.00,0,0,0,0,0,0,0,0,0.00,0.00,0.00,0.00,0.00,100,400,500,0000C8A0
15116,HOVER,UPD,1500,1500,1500,0,1000,1000,1000,0,0.00,0.00,0.00,0.00,0.00,0.00,0.00,0.00,0,0,0,0,0,0,0,0,0.00,0.00,0.00,0.00,0.00,100,400,500,00004FAC
15116,RECV,WR,996,993,993,-1410,173,173,173,-1464,0.00,0.00,0.00,0.00,0.00,0.00,0.00,0.00,0,0,0,0,0,0,0,0,0.00,0.00,0.00,0.00,0.00,0,0,0,00004CD1
15144,RECV,WR,996,993,993,192,173,173,173,-1464,0.00,0.00,0.00,0.00,0.00,0.00,0.00,0.00,0,0,0,0,0,0,0,0,0.00,0.00,0.00,0.00,0.00,0,0,0,00005E7E
15155,HOVER,UPD,1500,1500,1500,0,1000,1000,1000,0,0.00,0.00,0.00,0.00,0.00,0.00,0.00,0.00,0,0,0,0,0,0,0,0,0.00,0.00,0.00,0.00,0.00,100,400,500,00001AEF
15155,SDIST,UPD,0,0,0,29,0,0,0,0,16.53,12.39,450.00,429.34,38.88,29.16,450.00,401.41,431,12,0,0,400,29,0,0,0.00,0.00,0.00,0.00,0.00,0,0,0,0000C1E2
15182,HOVER,UPD,1500,1500,1500,0,1000,1000,1000,0,0.00,0.00,0.00,0.00,0.00,0.00,0.00,0.00,0,0,0,0,0,0,0,0,0.00,0.00,0.00,0.00,0.00,100,400,500,0000408C
15193,RECV,WR,996,993,993,-1410,173,173,173,-1464,0.00,0.00,0.00,0.00,0.00,0.00,0.00,0.00,0,0,0,0,0,0,0,0,0.00,0.00,0.00,0.00,0.00,0,0,0,0000F2CD
15208,RECV,WR,996,993,993,192,173,173,173,-1464,0.00,0.00,0.00,0.00,0.00,0.00,0.00,0.00,0,0,0,0,0,0,0,0,0.00,0.00,0.00,0.00,0.00,0,0,0,0000D979
15219,HOVER,UPD,1500,1500,1500,0,1000,1000,1000,0,0.00,0.00,0.00,0.00,0.00,0.00,0.00,0.00,0,0,0,0,0,0,0,0,0.00,0.00,0.00,0.00,0.00,100,400,500,00003932
15235,SDIST,UPD,0,0,0,29,0,0,0,0,16.50,12.37,450.00,429.38,38.95,29.21,450.00,401.32,431,12,0,0,400,29,0,0,0.00,0.00,0.00,0.00,0.00,0,0,0,0000E7D7
15246,RECV,WR,996,993,993,-1410,173,173,173,-1464,0.00,0.00,0.00,0.00,0.00,0.00,0.00,0.00,0,0,0,0,0,0,0,0,0.00,0.00,0.00,0.00,0.00,0,0,0,0000F705
15257,HOVER,UPD,1500,1500,1500,0,1000,1000,1000,0,0.00,0.00,0.00,0.00,0.00,0.00,0.00,0.00,0,0,0,0,0,0,0,0,0.00,0.00,0.00,0.00,0.00,100,400,500,00003218
15268,RECV,WR,996,993,993,192,173,173,173,-1464,0.00,0.00,0.00,0.00,0.00,0.00,0.00,0.00,0,0,0,0,0,0,0,0,0.00,0.00,0.00,0.00,0.00,0,0,0,0000DEA9
15294,HOVER,UPD,1500,1500,1500,0,1000,1000,1000,0,0.00,0.00,0.00,0.00,0.00,0.00,0.00,0.00,0,0,0,0,0,0,0,0,0.00,0.00,0.00,0.00,0.00,100,400,500,0000702D
15315,HOVER,UPD,1500,1500,1500,0,1000,1000,1000,0,0.00,0.00,0.00,0.00,0.00,0.00,0.00,0.00,0,0,0,0,0,0,0,0,0.00,0.00,0.00,0.00,0.00,100,400,500,00009C71
15326,RECV,WR,996,993,993,-1410,173,173,173,-1464,0.00,0.00,0.00,0.00,0.00,0.00,0.00,0.00,0,0,0,0,0,0,0,0,0.00,0.00,0.00,0.00,0.00,0,0,0,0000E5D6
15342,HOVER,UPD,1500,1500,1500,0,1000,1000,1000,0,0.00,0.00,0.00,0.00,0.00,0.00,0.00,0.00,0,0,0,0,0,0,0,0,0.00,0.00,0.00,0.00,0.00,100,400,500,0000D164
15343,RECV,WR,996,993,993,192,173,173,173,-1464,0.00,0.00,0.00,0.00,0.00,0.00,0.00,0.00,0,0,0,0,0,0,0,0,0.00,0.00,0.00,0.00,0.00,0,0,0,00004EAB
15343,SDIST,UPD,0,0,0,29,0,0,0,0,16.50,12.38,450.00,429.37,39.01,29.26,450.00,401.24,429,12,0,0,400,29,0,0,0.00,0.00,0.00,0.00,0.00,0,0,0,0000C8E6
15375,HOVER,UPD,1500,1500,1500,0,1000,1000,1000,0,0.00,0.00,0.00,0.00,0.00,0.00,0.00,0.00,0,0,0,0,0,0,0,0,0.00,0.00,0.00,0.00,0.00,100,400,500,00001A07
15396,HOVER,UPD,1500,1500,1500,0,1000,1000,1000,0,0.00,0.00,0.00,0.00,0.00,0.00,0.00,0.00,0,0,0,0,0,0,0,0,0.00,0.00,0.00,0.00,0.00,100,400,500,0000D5FF
15396,RECV,WR,996,993,993,-1410,173,173,173,-1464,0.00,0.00,0.00,0.00,0.00,0.00,0.00,0.00,0,0,0,0,0,0,0,0,0.00,0.00,0.00,0.00,0.00,0,0,0,00000A3B
15424,RECV,WR,996,993,993,192,173,173,173,-1464,0.00,0.00,0.00,0.00,0.00,0.00,0.00,0.00,0,0,0,0,0,0,0,0,0.00,0.00,0.00,0.00,0.00,0,0,0,0000212A
15435,HOVER,UPD,1500,1500,1500,0,1000,1000,1000,0,0.00,0.00,0.00,0.00,0.00,0.00,0.00,0.00,0,0,0,0,0,0,0,0,0.00,0.00,0.00,0.00,0.00,100,400,500,00005870
15435,SDIST,UPD,0,0,0,29,0,0,0,0,16.51,12.38,450.00,429.36,39.07,29.30,450.00,401.16,429,12,0,0,400,29,0,0,0.00,0.00,0.00,0.00,0.00,0,0,0,0000665F
15462,HOVER,UPD,1500,1500,1500,0,1000,1000,1000,0,0.00,0.00,0.00,0.00,0.00,0.00,0.00,0.00,0,0,0,0,0,0,0,0,0.00,0.00,0.00,0.00,0.00,100,400,500,00001565
15473,RECV,WR,996,993,993,-1410,173,173,173,-1464,0.00,0.00,0.00,0.00,0.00,0.00,0.00,0.00,0,0,0,0,0,0,0,0,0.00,0.00,0.00,0.00,0.00,0,0,0,00003643
15488,RECV,WR,996,993,993,192,173,173,173,-1464,0.00,0.00,0.00,0.00,0.00,0.00,0.00,0.00,0,0,0,0,0,0,0,0,0.00,0.00,0.00,0.00,0.00,0,0,0,00008341
15499,HOVER,UPD,1500,1500,1500,0,1000,1000,1000,0,0.00,0.00,0.00,0.00,0.00,0.00,0.00,0.00,0,0,0,0,0,0,0,0,0.00,0.00,0.00,0.00,0.00,100,400,500,0000A90A
15515,SDIST,UPD,0,0,0,29,0,0,0,0,16.50,12.37,450.00,429.38,39.12,29.34,450.00,401.10,430,12,0,0,400,29,0,0,0.00,0.00,0.00,0.00,0.00,0,0,0,00006C67
15526,RECV,WR,996,993,993,-1410,173,173,173,-1464,0.00,0.00,0.00,0.00,0.00,0.00,0.00,0.00,0,0,0,0,0,0,0,0,0.00,0.00,0.00,0.00,0.00,0,0,0,00007561
15537,HOVER,UPD,1500,1500,1500,0,1000,1000,1000,0,0.00,0.00,0.00,0.00,0.00,0.00,0.00,0.00,0,0,0,0,0,0,0,0,0.00,0.00,0.00,0.00,0.00,100,400,500,0000FDA2
15548,RECV,WR,996,993,993,192,173,173,173,-1464,0.00,0.00,0.00,0.00,0.00,0.00,0.00,0.00,0,0,0,0,0,0,0,0,0.00,0.00,0.00,0.00,0.00,0,0,0,000034DF
15574,HOVER,UPD,1500,1500,1500,0,1000,1000,1000,0,0.00,0.00,0.00,0.00,0.00,0.00,0.00,0.00,0,0,0,0,0,0,0,0,0.00,0.00,0.00,0.00,0.00,100,400,500,0000A8E1
15595,HOVER,UPD,1500,1500,1500,0,1000,1000,1000,0,0.00,0.00,0.00,0.00,0.00,0.00,0.00,0.00,0,0,0,0,0,0,0,0,0.00,0.00,0.00,0.00,0.00,100,400,500,00000C49
15606,RECV,WR,996,993,993,-1410,173,173,173,-1464,0.00,0.00,0.00,0.00,0.00,0.00,0.00,0.00,0,0,0,0,0,0,0,0,0.00,0.00,0.00,0.00,0.00,0,0,0,0000848C
15618,SDIST,UPD,0,0,0,29,0,0,0,0,16.49,12.37,450.00,429.39,39.17,29.38,450.00,401.04,430,12,0,0,400,29,0,0,0.00,0.00,0.00,0.00,0.00,0,0,0,0000A599
15629,RECV,WR,996,993,993,192,173,173,173,-1464,0.00,0.00,0.00,0.00,0.00,0.00,0.00,0.00,0,0,0,0,0,0,0,0,0.00,0.00,0.00,0.00,0.00,0,0,0,000046F9
15640,HOVER,UPD,1500,1500,1500,0,1000,1000,1000,0,0.00,0.00,0.00,0.00,0.00,0.00,0.00,0.00,0,0,0,0,0,0,0,0,0.00,0.00,0.00,0.00,0.00,100,400,500,00007EDD
15671,HOVER,UPD,1500,1500,1500,0,1000,1000,1000,0,0.00,0.00,0.00,0.00,0.00,0.00,0.00,0.00,0,0,0,0,0,0,0,0,0.00,0.00,0.00,0.00,0.00,100,400,500,0000084E
15673,RECV,WR,996,993,993,-1410,173,173,173,-1464,0.00,0.00,0.00,0.00,0.00,0.00,0.00,0.00,0,0,0,0,0,0,0,0,0.00,0.00,0.00,0.00,0.00,0,0,0,0000B631
15697,RECV,WR,996,993,993,192,173,173,173,-1464,0.00,0.00,0.00,0.00,0.00,0.00,0.00,0.00,0,0,0,0,0,0,0,0,0.00,0.00,0.00,0.00,0.00,0,0,0,00005EDE
15708,HOVER,UPD,1500,1500,1500,0,1000,1000,1000,0,0.00,0.00,0.00,0.00,0.00,0.00,0.00,0.00,0,0,0,0,0,0,0,0,0.00,0.00,0.00,0.00,0.00,100,400,500,00000685
15719,SDIST,UPD,0,0,0,29,0,0,0,0,16.50,12.37,450.00,429.38,39.21,29.41,450.00,400.98,429,12,0,0,400,29,0,0,0.00,0.00,0.00,0.00,0.00,0,0,0,00000D4D
15735,HOVER,UPD,1500,1500,1500,0,1000,1000,1000,0,0.00,0.00,0.00,0.00,0.00,0.00,0.00,0.00,0,0,0,0,0,0,0,0,0.00,0.00,0.00,0.00,0.00,100,400,500,00001BD7
15746,RECV,WR,996,993,993,-1410,173,173,173,-1464,0.00,0.00,0.00,0.00,0.00,0.00,0.00,0.00,0,0,0,0,0,0,0,0,0.00,0.00,0.00,0.00,0.00,0,0,0,0000A7F9
15761,RECV,WR,996,993,993,192,173,173,173,-1464,0.00,0.00,0.00,0.00,0.00,0.00,0.00,0.00,0,0,0,0,0,0,0,0,0.00,0.00,0.00,0.00,0.00,0,0,0,000037B5
15772,HOVER,UPD,1500,1500,1500,0,1000,1000,1000,0,0.00,0.00,0.00,0.00,0.00,0.00,0.00,0.00,0,0,0,0,0,0,0,0,0.00,0.00,0.00,0.00,0.00,100,400,500,00009834
15788,SDIST,UPD,0,0,0,29,0,0,0,0,16.54,12.40,450.00,429.33,39.25,29.44,450.00,400.93,427,12,0,0,400,29,0,0,0.00,0.00,0.00,0.00,0.00,0,0,0,00005325
15799,RECV,WR,996,993,993,-1410,173,173,173,-1464,0.00,0.00,0.00,0.00,0.00,0.00,0.00,0.00,0,0,0,0,0,0,0,0,0.00,0.00,0.00,0.00,0.00,0,0,0,00009372
15810,HOVER,UPD,1500,1500,1500,0,1000,1000,1000,0,0.00,0.00,0.00,0.00,0.00,0.00,0.00,0.00,0,0,0,0,0,0,0,0,0.00,0.00,0.00,0.00,0.00,100,400,500,00002808
15821,RECV,WR,996,993,993,192,173,173,173,-1464,0.00,0.00,0.00,0.00,0.00,0.00,0.00,0.00,0,0,0,0,0,0,0,0,0.00,0.00,0.00,0.00,0.00,0,0,0,00004B46
15847,HOVER,UPD,1500,1500,1500,0,1000,1000,1000,0,0.00,0.00,0.00,0.00,0.00,0.00,0.00,0.00,0,0,0,0,0,0,0,0,0.00,0.00,0.00,0.00,0.00,100,400,500,0000651D
15868,HOVER,UPD,1500,1500,1500,0,1000,1000,1000,0,0.00,0.00,0.00,0.00,0.00,0.00,0.00,0.00,0,0,0,0,0,0,0,0,0.00,0.00,0.00,0.00,0.00,100,400,500,0000DDE9
15879,RECV,WR,996,993,993,-1410,173,173,173,-1464,0.00,0.00,0.00,0.00,0.00,0.00,0.00,0.00,0,0,0,0,0,0,0,0,0.00,0.00,0.00,0.00,0.00,0,0,0,0000F604
15895,HOVER,UPD,1500,1500,1500,0,1000,1000,1000,0,0.00,0.00,0.00,0.00,0.00,0.00,0.00,0.00,0,0,0,0,0,0,0,0,0.00,0.00,0.00,0.00,0.00,100,400,500,0000DC76
15896,RECV,WR,996,993,993,192,173,173,173,-1464,0.00,0.00,0.00,0.00,0.00,0.00,0.00,0.00,0,0,0,0,0,0,0,0,0.00,0.00,0.00,0.00,0.00,0,0,0,0000C2F9
15896,SDIST,UPD,0,0,0,29,0,0,0,0,16.56,12.42,450.00,429.30,39.29,29.47,450.00,400.89,428,12,0,0,400,29,0,0,0.00,0.00,0.00,0.00,0.00,0,0,0,0000817E
15928,HOVER,UPD,1500,1500,1500,0,1000,1000,1000,0,0.00,0.00,0.00,0.00,0.00,0.00,0.00,0.00,0,0,0,0,0,0,0,0,0.00,0.00,0.00,0.00,0.00,100,400,500,000018D0
15949,HOVER,UPD,1500,1500,1500,0,1000,1000,1000,0,0.00,0.00,0.00,0.00,0.00,0.00,0.00,0.00,0,0,0,0,0,0,0,0,0.00,0.00,0.00,0.00,0.00,100,400,500,0000AB0E
15949,RECV,WR,996,993,993,-1410,173,173,173,-1464,0.00,0.00,0.00,0.00,0.00,0.00,0.00,0.00,0,0,0,0,0,0,0,0,0.00,0.00,0.00,0.00,0.00,0,0,0,00009F48
15977,RECV,WR,996,993,993,192,173,173,173,-1464,0.00,0.00,0.00,0.00,0.00,0.00,0.00,0.00,0,0,0,0,0,0,0,0,0.00,0.00,0.00,0.00,0.00,0,0,0,00002A5D
15988,HOVER,UPD,1500,1500,1500,0,1000,1000,1000,0,0.00,0.00,0.00,0.00,0.00,0.00,0.00,0.00,0,0,0,0,0,0,0,0,0.00,0.00,0.00,0.00,0.00,100,400,500,0000826B
15988,SDIST,UPD,0,0,0,29,0,0,0,0,16.53,12.40,450.00,429.34,39.33,29.49,450.00,400.84,431,12,0,0,400,29,0,0,0.00,0.00,0.00,0.00,0.00,0,0,0,0000D0E8
16015,HOVER,UPD,1500,1500,1500,0,1000,1000,1000,0,0.00,0.00,0.00,0.00,0.00,0.00,0.00,0.00,0,0,0,0,0,0,0,0,0.00,0.00,0.00,0.00,0.00,100,400,500,00000071
16026,RECV,WR,996,993,993,-1410,173,173,173,-1464,0.00,0.00,0.00,0.00,0.00,0.00,0.00,0.00,0,0,0,0,0,0,0,0,0.00,0.00,0.00,0.00,0.00,0,0,0,0000B7D1
16041,RECV,WR,996,993,993,192,173,173,173,-1464,0.00,0.00,0.00,0.00,0.00,0.00,0.00,0.00,0,0,0,0,0,0,0,0,0.00,0.00,0.00,0.00,0.00,0,0,0,0000F4B6
16052,HOVER,UPD,1500,1500,1500,0,1000,1000,1000,0,0.00,0.00,0.00,0.00,0.00,0.00,0.00,0.00,0,0,0,0,0,0,0,0,0.00,0.00,0.00,0.00,0.00,100,400,500,00008392
16068,SDIST,UPD,0,0,0,29,0,0,0,0,16.75,12.56,450.00,429.07,39.36,29.52,450.00,400.80,417,12,0,0,400,29,0,0,0.00,0.00,0.00,0.00,0.00,0,0,0,0000B76A
16079,RECV,WR,996,993,993,-1410,173,173,173,-1464,0.00,0.00,0.00,0.00,0.00,0.00,0.00,0.00,0,0,0,0,0,0,0,0,0.00,0.00,0.00,0.00,0.00,0,0,0,000045C2
16090,HOVER,UPD,1500,1500,1500,0,1000,1000,1000,0,0.00,0.00,0.00,0.00,0.00,0.00,0.00,0.00,0,0,0,0,0,0,0,0,0.00,0.00,0.00,0.00,0.00,100,400,500,0000F40F
16101,RECV,WR,996,993,993,192,173,173,173,-1464,0.00,0.00,0.00,0.00,0.00,0.00,0.00,0.00,0,0,0,0,0,0,0,0,0.00,0.00,0.00,0.00,0.00,0,0,0,0000B9F7
16127,HOVER,UPD,1500,1500,1500,0,1000,1000,1000,0,0.00,0.00,0.00,0.00,0.00,0.00,0.00,0.00,0,0,0,0,0,0,0,0,0.00,0.00,0.00,0.00,0.00,100,400,500,0000E698
16148,HOVER,UPD,1500,1500,1500,0,1000,1000,1000,0,0.00,0.00,0.00,0.00,0.00,0.00,0.00,0.00,0,0,0,0,0,0,0,0,0.00,0.00,0.00,0.00,0.00,100,400,500,000055D7
16159,RECV,WR,996,993,993,-1410,173,173,173,-1464,0.00,0.00,0.00,0.00,0.00,0.00,0.00,0.00,0,0,0,0,0,0,0,0,0.00,0.00,0.00,0.00,0.00,0,0,0,0000345D
16171,SDIST,UPD,0,0,0,29,0,0,0,0,17.07,12.80,450.00,428.67,39.39,29.54,450.00,400.77,414,12,0,0,400,29,0,0,0.00,0.00,0.00,0.00,0.00,0,0,0,00009B01
16182,RECV,WR,996,993,993,192,173,173,173,-1464,0.00,0.00,0.00,0.00,0.00,0.00,0.00,0.00,0,0,0,0,0,0,0,0,0.00,0.00,0.00,0.00,0.00,0,0,0,0000A5B6
16193,HOVER,UPD,1500,1500,1500,0,1000,1000,1000,0,0.00,0.00,0.00,0.00,0.00,0.00,0.00,0.00,0,0,0,0,0,0,0,0,0.00,0.00,0.00,0.00,0.00,100,400,500,00006475
16224,HOVER,UPD,1500,1500,1500,0,1000,1000,1000,0,0.00,0.00,0.00,0.00,0.00,0.00,0.00,0.00,0,0,0,0,0,0,0,0,0.00,0.00,0.00,0.00,0.00,100,400,500,0000FBC7
16226,RECV,WR,996,993,993,-1410,173,173,173,-1464,0.00,0.00,0.00,0.00,0.00,0.00,0.00,0.00,0,0,0,0,0,0,0,0,0.00,0.00,0.00,0.00,0.00,0,0,0,000037A3
16250,RECV,WR,996,993,993,192,173,173,173,-1464,0.00,0.00,0.00,0.00,0.00,0.00,0.00,0.00,0,0,0,0,0,0,0,0,0.00,0.00,0.00,0.00,0.00,0,0,0,0000C839
16261,HOVER,UPD,1500,1500,1500,0,1000,1000,1000,0,0.00,0.00,0.00,0.00,0.00,0.00,0.00,0.00,0,0,0,0,0,0,0,0,0.00,0.00,0.00,0.00,0.00,100,400,500,00001374
16272,SDIST,UPD,0,0,0,30,0,0,0,0,17.57,13.18,450.00,428.04,40.83,30.62,450.00,398.97,410,13,0,0,360,30,0,0,0.00,0.00,0.00,0.00,0.00,0,0,0,00007914
16288,HOVER,UPD,1500,1500,1500,0,1000,1000,1000,0,0.00,0.00,0.00,0.00,0.00,0.00,0.00,0.00,0,0,0,0,0,0,0,0,0.00,0.00,0.00,0.00,0.00,100,400,500,00000ABD
16299,RECV,WR,996,993,993,-1410,173,173,173,-1464,0.00,0.00,0.00,0.00,0.00,0.00,0.00,0.00,0,0,0,0,0,0,0,0,0.00,0.00,0.00,0.00,0.00,0,0,0,000051C2
16314,RECV,WR,996,993,993,192,173,173,173,-1464,0.00,0.00,0.00,0.00,0.00,0.00,0.00,0.00,0,0,0,0,0,0,0,0,0.00,0.00,0.00,0.00,0.00,0,0,0,0000136E
16325,HOVER,UPD,1500,1500,1500,0,1000,1000,1000,0,0.00,0.00,0.00,0.00,0.00,0.00,0.00,0.00,0,0,0,0,0,0,0,0,0.00,0.00,0.00,0.00,0.00,100,400,500,000000ED
16341,SDIST,UPD,0,0,0,43,0,0,0,0,18.20,13.65,450.00,427.25,58.59,43.94,450.00,376.76,410,13,0,0,100,43,0,0,0.00,0.00,0.00,0.00,0.00,0,0,0,00009203
16352,RECV,WR,996,993,993,-1410,173,173,173,-1464,0.00,0.00,0.00,0.00,0.00,0.00,0.00,0.00,0,0,0,0,0,0,0,0,0.00,0.00,0.00,0.00,0.00,0,0,0,0000FD19
16363,HOVER,UPD,1500,1500,1500,0,1000,1000,1000,0,0.00,0.00,0.00,0.00,0.00,0.00,0.00,0.00,0,0,0,0,0,0,0,0,0.00,0.00,0.00,0.00,0.00,100,400,500,0000B6A6
16374,RECV,WR,996,993,993,192,173,173,173,-1464,0.00,0.00,0.00,0.00,0.00,0.00,0.00,0.00,0,0,0,0,0,0,0,0,0.00,0.00,0.00,0.00,0.00,0,0,0,000014BE
16400,HOVER,UPD,1500,1500,1500,0,1000,1000,1000,0,0.00,0.00,0.00,0.00,0.00,0.00,0.00,0.00,0,0,0,0,0,0,0,0,0.00,0.00,0.00,0.00,0.00,100,400,500,000027E4
16421,HOVER,UPD,1500,1500,1500,0,1000,1000,1000,0,0.00,0.00,0.00,0.00,0.00,0.00,0.00,0.00,0,0,0,0,0,0,0,0,0.00,0.00,0.00,0.00,0.00,100,400,500,00009F81
16432,RECV,WR,996,993,993,-1410,173,173,173,-1464,0.00,0.00,0.00,0.00,0.00,0.00,0.00,0.00,0,0,0,0,0,0,0,0,0.00,0.00,0.00,0.00,0.00,0,0,0,00007F7D
16447,SDIST,UPD,0,0,0,75,0,0,0,0,19.03,14.27,450.00,426.21,100.00,75.00,450.00,285.69,409,14,0,0,110,75,0,0,0.00,0.00,0.00,0.00,0.00,0,0,0,0000530B
16458,HOVER,UPD,1500,1500,1500,0,1000,1000,1000,0,0.00,0.00,0.00,0.00,0.00,0.00,0.00,0.00,0,0,0,0,0,0,0,0,0.00,0.00,0.00,0.00,0.00,100,400,500,00005FC8
16459,RECV,WR,996,993,993,192,173,173,173,-1464,0.00,0.00,0.00,0.00,0.00,0.00,0.00,0.00,0,0,0,0,0,0,0,0,0.00,0.00,0.00,0.00,0.00,0,0,0,0000F946
16485,HOVER,UPD,1500,1500,1500,0,1000,1000,1000,0,0.00,0.00,0.00,0.00,0.00,0.00,0.00,0.00,0,0,0,0,0,0,0,0,0.00,0.00,0.00,0.00,0.00,100,400,500,0000D39A
16506,HOVER,UPD,1500,1500,1500,0,1000,1000,1000,0,0.00,0.00,0.00,0.00,0.00,0.00,0.00,0.00,0,0,0,0,0,0,0,0,0.00,0.00,0.00,0.00,0.00,100,400,500,00005496
16517,RECV,WR,996,993,993,-1410,173,173,173,-1464,0.00,0.00,0.00,0.00,0.00,0.00,0.00,0.00,0,0,0,0,0,0,0,0,0.00,0.00,0.00,0.00,0.00,0,0,0,00007666
16533,HOVER,UPD,1500,1500,1500,0,1000,1000,1000,0,0.00,0.00,0.00,0.00,0.00,0.00,0.00,0.00,0,0,0,0,0,0,0,0,0.00,0.00,0.00,0.00,0.00,100,400,500,0000F4A5
16534,RECV,WR,996,993,993,192,173,173,173,-1464,0.00,0.00,0.00,0.00,0.00,0.00,0.00,0.00,0,0,0,0,0,0,0,0,0.00,0.00,0.00,0.00,0.00,0,0,0,00004126
16534,SDIST,UPD,0,0,0,75,0,0,0,0,20.30,15.23,450.00,424.62,100.00,75.00,450.00,179.22,404,15,0,0,130,75,0,0,0.00,0.00,0.00,0.00,0.00,0,0,0,000072AC
16566,HOVER,UPD,1500,1500,1500,0,1000,1000,1000,0,0.00,0.00,0.00,0.00,0.00,0.00,0.00,0.00,0,0,0,0,0,0,0,0,0.00,0.00,0.00,0.00,0.00,100,400,500,0000D2E0
16587,HOVER,UPD,1500,1500,1500,0,1000,1000,1000,0,0.00,0.00,0.00,0.00,0.00,0.00,0.00,0.00,0,0,0,0,0,0,0,0,0.00,0.00,0.00,0.00,0.00,100,400,500,00007648
16587,RECV,WR,996,993,993,-1410,173,173,173,-1464,0.00,0.00,0.00,0.00,0.00,0.00,0.00,0.00,0,0,0,0,0,0,0,0,0.00,0.00,0.00,0.00,0.00,0,0,0,0000A82D
16615,RECV,WR,996,993,993,192,173,173,173,-1464,0.00,0.00,0.00,0.00,0.00,0.00,0.00,0.00,0,0,0,0,0,0,0,0,0.00,0.00,0.00,0.00,0.00,0,0,0,0000C67F
16626,HOVER,UPD,1500,1500,1500,0,1000,1000,1000,0,0.00,0.00,0.00,0.00,0.00,0.00,0.00,0.00,0,0,0,0,0,0,0,0,0.00,0.00,0.00,0.00,0.00,100,400,500,00009AFC
16626,SDIST,UPD,0,0,0,75,0,0,0,0,22.15,16.61,450.00,422.31,100.00,75.00,450.00,209.31,400,16,0,0,220,75,0,0,0.00,0.00,0.00,0.00,0.00,0,0,0,000093A6
16653,HOVER,UPD,1500,1500,1500,0,1000,1000,1000,0,0.00,0.00,0.00,0.00,0.00,0.00,0.00,0.00,0,0,0,0,0,0,0,0,0.00,0.00,0.00,0.00,0.00,100,400,500,00003174
16664,RECV,WR,996,993,993,-1410,173,173,173,-1464,0.00,0.00,0.00,0.00,0.00,0.00,0.00,0.00,0,0,0,0,0,0,0,0,0.00,0.00,0.00,0.00,0.00,0,0,0,00002477
16679,RECV,WR,996,993,993,192,173,173,173,-1464,0.00,0.00,0.00,0.00,0.00,0.00,0.00,0.00,0,0,0,0,0,0,0,0,0.00,0.00,0.00,0.00,0.00,0,0,0,00006BB4
16690,HOVER,UPD,1500,1500,1500,0,1000,1000,1000,0,0.00,0.00,0.00,0.00,0.00,0.00,0.00,0.00,0,0,0,0,0,0,0,0,0.00,0.00,0.00,0.00,0.00,100,400,500,00007341
16706,SDIST,UPD,0,0,0,75,0,0,0,0,26.30,19.73,450.00,417.12,100.00,75.00,450.00,249.78,380,19,0,0,280,75,0,0,0.00,0.00,0.00,0.00,0.00,0,0,0,000023D1
16717,RECV,WR,996,993,993,-1410,173,173,173,-1464,0.00,0.00,0.00,0.00,0.00,0.00,0.00,0.00,0,0,0,0,0,0,0,0,0.00,0.00,0.00,0.00,0.00,0,0,0,0000F614
16728,HOVER,UPD,1500,1500,1500,0,1000,1000,1000,0,0.00,0.00,0.00,0.00,0.00,0.00,0.00,0.00,0,0,0,0,0,0,0,0,0.00,0.00,0.00,0.00,0.00,100,400,500,000054EF
16739,RECV,WR,996,993,993,192,173,173,173,-1464,0.00,0.00,0.00,0.00,0.00,0.00,0.00,0.00,0,0,0,0,0,0,0,0,0.00,0.00,0.00,0.00,0.00,0,0,0,000026F5
16765,HOVER,UPD,1500,1500,1500,0,1000,1000,1000,0,0.00,0.00,0.00,0.00,0.00,0.00,0.00,0.00,0,0,0,0,0,0,0,0,0.00,0.00,0.00,0.00,0.00,100,400,500,0000013D
16786,HOVER,UPD,1500,1500,1500,0,1000,1000,1000,0,0.00,0.00,0.00,0.00,0.00,0.00,0.00,0.00,0,0,0,0,0,0,0,0,0.00,0.00,0.00,0.00,0.00,100,400,500,0000CEC5
16797,RECV,WR,996,993,993,-1410,173,173,173,-1464,0.00,0.00,0.00,0.00,0.00,0.00,0.00,0.00,0,0,0,0,0,0,0,0,0.00,0.00,0.00,0.00,0.00,0,0,0,0000308C
16813,HOVER,UPD,1500,1500,1500,0,1000,1000,1000,0,0.00,0.00,0.00,0.00,0.00,0.00,0.00,0.00,0,0,0,0,0,0,0,0,0.00,0.00,0.00,0.00,0.00,100,400,500,0000A957
16814,RECV,WR,996,993,993,192,173,173,173,-1464,0.00,0.00,0.00,0.00,0.00,0.00,0.00,0.00,0,0,0,0,0,0,0,0,0.00,0.00,0.00,0.00,0.00,0,0,0,00005A58
16814,SDIST,UPD,0,0,0,75,0,0,0,0,37.26,27.95,450.00,403.42,100.00,75.00,450.00,284.72,343,27,0,0,310,75,0,0,0.00,0.00,0.00,0.00,0.00,0,0,0,0000E00C
16846,HOVER,UPD,1500,1500,1500,0,1000,1000,1000,0,0.00,0.00,0.00,0.00,0.00,0.00,0.00,0.00,0,0,0,0,0,0,0,0,0.00,0.00,0.00,0.00,0.00,100,400,500,00008F12
16867,HOVER,UPD,1500,1500,1500,0,1000,1000,1000,0,0.00,0.00,0.00,0.00,0.00,0.00,0.00,0.00,0,0,0,0,0,0,0,0,0.00,0.00,0.00,0.00,0.00,100,400,500,00003777
16867,RECV,WR,996,993,993,-1410,173,173,173,-1464,0.00,0.00,0.00,0.00,0.00,0.00,0.00,0.00,0,0,0,0,0,0,0,0,0.00,0.00,0.00,0.00,0.00,0,0,0,00004D29
16895,RECV,WR,996,993,993,192,173,173,173,-1464,0.00,0.00,0.00,0.00,0.00,0.00,0.00,0.00,0,0,0,0,0,0,0,0,0.00,0.00,0.00,0.00,0.00,0,0,0,00000D12
16906,HOVER,UPD,1500,1500,1500,0,1000,1000,1000,0,0.00,0.00,0.00,0.00,0.00,0.00,0.00,0.00,0,0,0,0,0,0,0,0,0.00,0.00,0.00,0.00,0.00,100,400,500,00004A2B
16906,SDIST,UPD,0,0,0,75,0,0,0,0,60.01,45.01,450.00,374.99,100.00,75.00,450.00,315.74,313,45,0,0,340,75,0,0,0.00,0.00,0.00,0.00,0.00,0,0,0,0000C6B5
16933,HOVER,UPD,1500,1500,1500,0,1000,1000,1000,0,0.00,0.00,0.00,0.00,0.00,0.00,0.00,0.00,0,0,0,0,0,0,0,0,0.00,0.00,0.00,0.00,0.00,100,400,500,0000EA18
16944,RECV,WR,996,993,993,-1410,173,173,173,-1464,0.00,0.00,0.00,0.00,0.00,0.00,0.00,0.00,0,0,0,0,0,0,0,0,0.00,0.00,0.00,0.00,0.00,0,0,0,0000E4D5
16959,RECV,WR,996,993,993,192,173,173,173,-1464,0.00,0.00,0.00,0.00,0.00,0.00,0.00,0.00,0,0,0,0,0,0,0,0,0.00,0.00,0.00,0.00,0.00,0,0,0,00001097
16970,HOVER,UPD,1500,1500,1500,0,1000,1000,1000,0,0.00,0.00,0.00,0.00,0.00,0.00,0.00,0.00,0,0,0,0,0,0,0,0,0.00,0.00,0.00,0.00,0.00,100,400,500,0000BF5B
16986,SDIST,UPD,0,0,0,75,0,0,0,0,73.89,55.41,450.00,357.64,100.00,75.00,450.00,318.05,338,55,0,0,320,75,0,0,0.00,0.00,0.00,0.00,0.00,0,0,0,000057B4
16997,RECV,WR,996,993,993,-1410,173,173,173,-1464,0.00,0.00,0.00,0.00,0.00,0.00,0.00,0.00,0,0,0,0,0,0,0,0,0.00,0.00,0.00,0.00,0.00,0,0,0,000081B1
17008,HOVER,UPD,1500,1500,1500,0,1000,1000,1000,0,0.00,0.00,0.00,0.00,0.00,0.00,0.00,0.00,0,0,0,0,0,0,0,0,0.00,0.00,0.00,0.00,0.00,100,400,500,00002A6C
17019,RECV,WR,996,993,993,192,173,173,173,-1464,0.00,0.00,0.00,0.00,0.00,0.00,0.00,0.00,0,0,0,0,0,0,0,0,0.00,0.00,0.00,0.00,0.00,0,0,0,0000D450
17045,HOVER,UPD,1500,1500,1500,0,1000,1000,1000,0,0.00,0.00,0.00,0.00,0.00,0.00,0.00,0.00,0,0,0,0,0,0,0,0,0.00,0.00,0.00,0.00,0.00,100,400,500,00007FBE
17066,HOVER,UPD,1500,1500,1500,0,1000,1000,1000,0,0.00,0.00,0.00,0.00,0.00,0.00,0.00,0.00,0,0,0,0,0,0,0,0,0.00,0.00,0.00,0.00,0.00,100,400,500,0000AC8B
17077,RECV,WR,996,993,993,-1410,173,173,173,-1464,0.00,0.00,0.00,0.00,0.00,0.00,0.00,0.00,0,0,0,0,0,0,0,0,0.00,0.00,0.00,0.00,0.00,0,0,0,000005B4
17092,SDIST,UPD,0,0,0,75,0,0,0,0,66.21,49.66,450.00,367.24,100.00,75.00,450.00,266.95,379,49,0,0,180,75,0,0,0.00,0.00,0.00,0.00,0.00,0,0,0,00008A21
17103,HOVER,UPD,1500,1500,1500,0,1000,1000,1000,0,0.00,0.00,0.00,0.00,0.00,0.00,0.00,0.00,0,0,0,0,0,0,0,0,0.00,0.00,0.00,0.00,0.00,100,400,500,00000777
17104,RECV,WR,996,993,993,192,173,173,173,-1464,0.00,0.00,0.00,0.00,0.00,0.00,0.00,0.00,0,0,0,0,0,0,0,0,0.00,0.00,0.00,0.00,0.00,0,0,0,00009AA7
17130,HOVER,UPD,1500,1500,1500,0,1000,1000,1000,0,0.00,0.00,0.00,0.00,0.00,0.00,0.00,0.00,0,0,0,0,0,0,0,0,0.00,0.00,0.00,0.00,0.00,100,400,500,00001AB4
17151,HOVER,UPD,1500,1500,1500,0,1000,1000,1000,0,0.00,0.00,0.00,0.00,0.00,0.00,0.00,0.00,0,0,0,0,0,0,0,0,0.00,0.00,0.00,0.00,0.00,100,400,500,0000A96A
17162,RECV,WR,996,993,993,-1410,173,173,173,-1464,0.00,0.00,0.00,0.00,0.00,0.00,0.00,0.00,0,0,0,0,0,0,0,0,0.00,0.00,0.00,0.00,0.00,0,0,0,000025DA
17178,HOVER,UPD,1500,1500,1500,0,1000,1000,1000,0,0.00,0.00,0.00,0.00,0.00,0.00,0.00,0.00,0,0,0,0,0,0,0,0,0.00,0.00,0.00,0.00,0.00,100,400,500,0000AC6E
17179,RECV,WR,996,993,993,192,173,173,173,-1464,0.00,0.00,0.00,0.00,0.00,0.00,0.00,0.00,0,0,0,0,0,0,0,0,0.00,0.00,0.00,0.00,0.00,0,0,0,00006BBE
17179,SDIST,UPD,0,0,0,75,0,0,0,0,57.53,43.15,450.00,378.09,100.00,75.00,450.00,187.25,395,43,0,0,130,75,0,0,0.00,0.00,0.00,0.00,0.00,0,0,0,0000A8E5
17211,HOVER,UPD,1500,1500,1500,0,1000,1000,1000,0,0.00,0.00,0.00,0.00,0.00,0.00,0.00,0.00,0,0,0,0,0,0,0,0,0.00,0.00,0.00,0.00,0.00,100,400,500,0000E176
17232,HOVER,UPD,1500,1500,1500,0,1000,1000,1000,0,0.00,0.00,0.00,0.00,0.00,0.00,0.00,0.00,0,0,0,0,0,0,0,0,0.00,0.00,0.00,0.00,0.00,100,400,500,00003243
17232,RECV,WR,996,993,993,-1410,173,173,173,-1464,0.00,0.00,0.00,0.00,0.00,0.00,0.00,0.00,0,0,0,0,0,0,0,0,0.00,0.00,0.00,0.00,0.00,0,0,0,00009E0E
17260,RECV,WR,996,993,993,192,173,173,173,-1464,0.00,0.00,0.00,0.00,0.00,0.00,0.00,0.00,0,0,0,0,0,0,0,0,0.00,0.00,0.00,0.00,0.00,0,0,0,0000D302
17271,HOVER,UPD,1500,1500,1500,0,1000,1000,1000,0,0.00,0.00,0.00,0.00,0.00,0.00,0.00,0.00,0,0,0,0,0,0,0,0,0.00,0.00,0.00,0.00,0.00,100,400,500,00006700
17271,SDIST,UPD,0,0,0,75,0,0,0,0,52.42,39.31,450.00,384.48,100.00,75.00,450.00,148.02,395,39,0,0,130,75,0,0,0.00,0.00,0.00,0.00,0.00,0,0,0,00000D95
17298,HOVER,UPD,1500,1500,1500,0,1000,1000,1000,0,0.00,0.00,0.00,0.00,0.00,0.00,0.00,0.00,0,0,0,0,0,0,0,0,0.00,0.00,0.00,0.00,0.00,100,400,500,00007EC9
17309,RECV,WR,996,993,993,-1410,173,173,173,-1464,0.00,0.00,0.00,0.00,0.00,0.00,0.00,0.00,0,0,0,0,0,0,0,0,0.00,0.00,0.00,0.00,0.00,0,0,0,0000BE74
17324,RECV,WR,996,993,993,192,173,173,173,-1464,0.00,0.00,0.00,0.00,0.00,0.00,0.00,0.00,0,0,0,0,0,0,0,0,0.00,0.00,0.00,0.00,0.00,0,0,0,00000855
17335,HOVER,UPD,1500,1500,1500,0,1000,1000,1000,0,0.00,0.00,0.00,0.00,0.00,0.00,0.00,0.00,0,0,0,0,0,0,0,0,0.00,0.00,0.00,0.00,0.00,100,400,500,00007499
17351,SDIST,UPD,0,0,0,75,0,0,0,0,53.62,40.22,450.00,382.97,100.00,75.00,450.00,149.20,380,40,0,0,150,75,0,0,0.00,0.00,0.00,0.00,0.00,0,0,0,0000B3FC
17362,RECV,WR,996,993,993,-1410,173,173,173,-1464,0.00,0.00,0.00,0.00,0.00,0.00,0.00,0.00,0,0,0,0,0,0,0,0,0.00,0.00,0.00,0.00,0.00,0,0,0,0000A5A8
17373,HOVER,UPD,1500,1500,1500,0,1000,1000,1000,0,0.00,0.00,0.00,0.00,0.00,0.00,0.00,0.00,0,0,0,0,0,0,0,0,0.00,0.00,0.00,0.00,0.00,100,400,500,0000C2D2
17384,RECV,WR,996,993,993,192,173,173,173,-1464,0.00,0.00,0.00,0.00,0.00,0.00,0.00,0.00,0,0,0,0,0,0,0,0,0.00,0.00,0.00,0.00,0.00,0,0,0,00000025
17410,HOVER,UPD,1500,1500,1500,0,1000,1000,1000,0,0.00,0.00,0.00,0.00,0.00,0.00,0.00,0.00,0,0,0,0,0,0,0,0,0.00,0.00,0.00,0.00,0.00,100,400,500,00005390
17431,HOVER,UPD,1500,1500,1500,0,1000,1000,1000,0,0.00,0.00,0.00,0.00,0.00,0.00,0.00,0.00,0,0,0,0,0,0,0,0,0.00,0.00,0.00,0.00,0.00,100,400,500,0000EBF5
17442,RECV,WR,996,993,993,-1410,173,173,173,-1464,0.00,0.00,0.00,0.00,0.00,0.00,0.00,0.00,0,0,0,0,0,0,0,0,0.00,0.00,0.00,0.00,0.00,0,0,0,00004480
17458,HOVER,UPD,1500,1500,1500,0,1000,1000,1000,0,0.00,0.00,0.00,0.00,0.00,0.00,0.00,0.00,0,0,0,0,0,0,0,0,0.00,0.00,0.00,0.00,0.00,100,400,500,0000E54A
17459,RECV,WR,996,993,993,192,173,173,173,-1464,0.00,0.00,0.00,0.00,0.00,0.00,0.00,0.00,0,0,0,0,0,0,0,0,0.00,0.00,0.00,0.00,0.00,0,0,0,0000E195
17459,SDIST,UPD,0,0,0,75,0,0,0,0,61.97,46.48,450.00,372.53,100.00,75.00,450.00,168.61,344,46,0,0,200,75,0,0,0.00,0.00,0.00,0.00,0.00,0,0,0,000075CB
17491,HOVER,UPD,1500,1500,1500,0,1000,1000,1000,0,0.00,0.00,0.00,0.00,0.00,0.00,0.00,0.00,0,0,0,0,0,0,0,0,0.00,0.00,0.00,0.00,0.00,100,400,500,0000714E
17512,HOVER,UPD,1500,1500,1500,0,1000,1000,1000,0,0.00,0.00,0.00,0.00,0.00,0.00,0.00,0.00,0,0,0,0,0,0,0,0,0.00,0.00,0.00,0.00,0.00,100,400,500,0000F642
17513,RECV,WR,996,993,993,-1410,173,173,173,-1464,0.00,0.00,0.00,0.00,0.00,0.00,0.00,0.00,0,0,0,0,0,0,0,0,0.00,0.00,0.00,0.00,0.00,0,0,0,0000C718
17540,RECV,WR,996,993,993,192,173,173,173,-1464,0.00,0.00,0.00,0.00,0.00,0.00,0.00,0.00,0,0,0,0,0,0,0,0,0.00,0.00,0.00,0.00,0.00,0,0,0,00003974
17551,HOVER,UPD,1500,1500,1500,0,1000,1000,1000,0,0.00,0.00,0.00,0.00,0.00,0.00,0.00,0.00,0,0,0,0,0,0,0,0,0.00,0.00,0.00,0.00,0.00,100,400,500,0000A301
17551,SDIST,UPD,0,0,0,75,0,0,0,0,78.13,58.59,450.00,352.34,100.00,75.00,450.00,182.27,310,58,0,0,200,75,0,0,0.00,0.00,0.00,0.00,0.00,0,0,0,0000FC24
17578,HOVER,UPD,1500,1500,1500,0,1000,1000,1000,0,0.00,0.00,0.00,0.00,0.00,0.00,0.00,0.00,0,0,0,0,0,0,0,0,0.00,0.00,0.00,0.00,0.00,100,400,500,0000A605
17589,RECV,WR,996,993,993,-1410,173,173,173,-1464,0.00,0.00,0.00,0.00,0.00,0.00,0.00,0.00,0,0,0,0,0,0,0,0,0.00,0.00,0.00,0.00,0.00,0,0,0,0000E85B
17604,RECV,WR,996,993,993,192,173,173,173,-1464,0.00,0.00,0.00,0.00,0.00,0.00,0.00,0.00,0,0,0,0,0,0,0,0,0.00,0.00,0.00,0.00,0.00,0,0,0,0000827E
17615,HOVER,UPD,1500,1500,1500,0,1000,1000,1000,0,0.00,0.00,0.00,0.00,0.00,0.00,0.00,0.00,0,0,0,0,0,0,0,0,0.00,0.00,0.00,0.00,0.00,100,400,500,00003DBD
17631,SDIST,UPD,0,0,0,75,0,0,0,0,99.11,74.34,450.00,326.11,100.00,75.00,450.00,193.77,290,74,0,0,210,75,0,0,0.00,0.00,0.00,0.00,0.00,0,0,0,00003DB9
17642,RECV,WR,996,993,993,-1410,173,173,173,-1464,0.00,0.00,0.00,0.00,0.00,0.00,0.00,0.00,0,0,0,0,0,0,0,0,0.00,0.00,0.00,0.00,0.00,0,0,0,0000C4F2
17653,HOVER,UPD,1500,1500,1500,0,1000,1000,1000,0,0.00,0.00,0.00,0.00,0.00,0.00,0.00,0.00,0,0,0,0,0,0,0,0,0.00,0.00,0.00,0.00,0.00,100,400,500,00008BF6
17664,RECV,WR,996,993,993,192,173,173,173,-1464,0.00,0.00,0.00,0.00,0.00,0.00,0.00,0.00,0,0,0,0,0,0,0,0,0.00,0.00,0.00,0.00,0.00,0,0,0,000085AE
17690,HOVER,UPD,1500,1500,1500,0,1000,1000,1000,0,0.00,0.00,0.00,0.00,0.00,0.00,0.00,0.00,0,0,0,0,0,0,0,0,0.00,0.00,0.00,0.00,0.00,100,400,500,0000C9C3
17711,HOVER,UPD,1500,1500,1500,0,1000,1000,1000,0,0.00,0.00,0.00,0.00,0.00,0.00,0.00,0.00,0,0,0,0,0,0,0,0,0.00,0.00,0.00,0.00,0.00,100,400,500,0000259F
17722,RECV,WR,996,993,993,-1410,173,173,173,-1464,0.00,0.00,0.00,0.00,0.00,0.00,0.00,0.00,0,0,0,0,0,0,0,0,0.00,0.00,0.00,0.00,0.00,0,0,0,0000D621
17737,SDIST,UPD,0,0,0,75,0,0,0,0,100.00,75.00,450.00,309.53,100.00,75.00,450.00,211.89,292,75,0,0,240,75,0,0,0.00,0.00,0.00,0.00,0.00,0,0,0,00004499
17748,HOVER,UPD,1500,1500,1500,0,1000,1000,1000,0,0.00,0.00,0.00,0.00,0.00,0.00,0.00,0.00,0,0,0,0,0,0,0,0,0.00,0.00,0.00,0.00,0.00,100,400,500,0000681B
17749,RECV,WR,996,993,993,192,173,173,173,-1464,0.00,0.00,0.00,0.00,0.00,0.00,0.00,0.00,0,0,0,0,0,0,0,0,0.00,0.00,0.00,0.00,0.00,0,0,0,0000C8B1
17775,HOVER,UPD,1500,1500,1500,0,1000,1000,1000,0,0.00,0.00,0.00,0.00,0.00,0.00,0.00,0.00,0,0,0,0,0,0,0,0,0.00,0.00,0.00,0.00,0.00,100,400,500,00007549
17796,HOVER,UPD,1500,1500,1500,0,1000,1000,1000,0,0.00,0.00,0.00,0.00,0.00,0.00,0.00,0.00,0,0,0,0,0,0,0,0,0.00,0.00,0.00,0.00,0.00,100,400,500,0000BAB1
17807,RECV,WR,996,993,993,-1410,173,173,173,-1464,0.00,0.00,0.00,0.00,0.00,0.00,0.00,0.00,0,0,0,0,0,0,0,0,0.00,0.00,0.00,0.00,0.00,0,0,0,00006E07
17823,HOVER,UPD,1500,1500,1500,0,1000,1000,1000,0,0.00,0.00,0.00,0.00,0.00,0.00,0.00,0.00,0,0,0,0,0,0,0,0,0.00,0.00,0.00,0.00,0.00,100,400,500,000050EE
17824,RECV,WR,996,993,993,192,173,173,173,-1464,0.00,0.00,0.00,0.00,0.00,0.00,0.00,0.00,0,0,0,0,0,0,0,0,0.00,0.00,0.00,0.00,0.00,0,0,0,00004163
17824,SDIST,UPD,0,0,0,75,0,0,0,0,100.00,75.00,450.00,316.49,100.00,75.00,450.00,223.98,325,75,0,0,240,75,0,0,0.00,0.00,0.00,0.00,0.00,0,0,0,0000B794
17856,HOVER,UPD,1500,1500,1500,0,1000,1000,1000,0,0.00,0.00,0.00,0.00,0.00,0.00,0.00,0.00,0,0,0,0,0,0,0,0,0.00,0.00,0.00,0.00,0.00,100,400,500,0000FB66
17877,HOVER,UPD,1500,1500,1500,0,1000,1000,1000,0,0.00,0.00,0.00,0.00,0.00,0.00,0.00,0.00,0,0,0,0,0,0,0,0,0.00,0.00,0.00,0.00,0.00,100,400,500,00004303
17877,RECV,WR,996,993,993,-1410,173,173,173,-1464,0.00,0.00,0.00,0.00,0.00,0.00,0.00,0.00,0,0,0,0,0,0,0,0,0.00,0.00,0.00,0.00,0.00,0,0,0,0000243E
17905,RECV,WR,996,993,993,192,173,173,173,-1464,0.00,0.00,0.00,0.00,0.00,0.00,0.00,0.00,0,0,0,0,0,0,0,0,0.00,0.00,0.00,0.00,0.00,0,0,0,0000A667
17916,HOVER,UPD,1500,1500,1500,0,1000,1000,1000,0,0.00,0.00,0.00,0.00,0.00,0.00,0.00,0.00,0,0,0,0,0,0,0,0,0.00,0.00,0.00,0.00,0.00,100,400,500,00003E5F
17916,SDIST,UPD,0,0,0,75,0,0,0,0,94.50,70.87,450.00,331.88,100.00,75.00,450.00,214.34,358,70,0,0,200,75,0,0,0.00,0.00,0.00,0.00,0.00,0,0,0,0000636F
17943,HOVER,UPD,1500,1500,1500,0,1000,1000,1000,0,0.00,0.00,0.00,0.00,0.00,0.00,0.00,0.00,0,0,0,0,0,0,0,0,0.00,0.00,0.00,0.00,0.00,100,400,500,0000181A
17954,RECV,WR,996,993,993,-1410,173,173,173,-1464,0.00,0.00,0.00,0.00,0.00,0.00,0.00,0.00,0,0,0,0,0,0,0,0,0.00,0.00,0.00,0.00,0.00,0,0,0,00008DC2
17969,RECV,WR,996,993,993,192,173,173,173,-1464,0.00,0.00,0.00,0.00,0.00,0.00,0.00,0.00,0,0,0,0,0,0,0,0,0.00,0.00,0.00,0.00,0.00,0,0,0,00000BAC
17980,HOVER,UPD,1500,1500,1500,0,1000,1000,1000,0,0.00,0.00,0.00,0.00,0.00,0.00,0.00,0.00,0,0,0,0,0,0,0,0,0.00,0.00,0.00,0.00,0.00,100,400,500,00005A2F
17996,SDIST,UPD,0,0,0,75,0,0,0,0,81.85,61.39,450.00,347.69,100.00,75.00,450.00,190.35,371,61,0,0,150,75,0,0,0.00,0.00,0.00,0.00,0.00,0,0,0,00003807
18007,RECV,WR,996,993,993,-1410,173,173,173,-1464,0.00,0.00,0.00,0.00,0.00,0.00,0.00,0.00,0,0,0,0,0,0,0,0,0.00,0.00,0.00,0.00,0.00,0,0,0,0000B4B3
18018,HOVER,UPD,1500,1500,1500,0,1000,1000,1000,0,0.00,0.00,0.00,0.00,0.00,0.00,0.00,0.00,0,0,0,0,0,0,0,0,0.00,0.00,0.00,0.00,0.00,100,400,500,000075C2
18029,RECV,WR,996,993,993,192,173,173,173,-1464,0.00,0.00,0.00,0.00,0.00,0.00,0.00,0.00,0,0,0,0,0,0,0,0,0.00,0.00,0.00,0.00,0.00,0,0,0,00005B19
18055,HOVER,UPD,1500,1500,1500,0,1000,1000,1000,0,0.00,0.00,0.00,0.00,0.00,0.00,0.00,0.00,0,0,0,0,0,0,0,0,0.00,0.00,0.00,0.00,0.00,100,400,500,00002010
18076,HOVER,UPD,1500,1500,1500,0,1000,1000,1000,0,0.00,0.00,0.00,0.00,0.00,0.00,0.00,0.00,0,0,0,0,0,0,0,0,0.00,0.00,0.00,0.00,0.00,100,400,500,0000F325
18087,RECV,WR,996,993,993,-1410,173,173,173,-1464,0.00,0.00,0.00,0.00,0.00,0.00,0.00,0.00,0,0,0,0,0,0,0,0,0.00,0.00,0.00,0.00,0.00,0,0,0,0000722B
18103,HOVER,UPD,1500,1500,1500,0,1000,1000,1000,0,0.00,0.00,0.00,0.00,0.00,0.00,0.00,0.00,0,0,0,0,0,0,0,0,0.00,0.00,0.00,0.00,0.00,100,400,500,0000962F
18104,RECV,WR,996,993,993,192,173,173,173,-1464,0.00,0.00,0.00,0.00,0.00,0.00,0.00,0.00,0,0,0,0,0,0,0,0,0.00,0.00,0.00,0.00,0.00,0,0,0,00001606
18104,SDIST,UPD,0,0,0,75,0,0,0,0,78.73,59.05,450.00,351.59,100.00,75.00,450.00,167.18,357,59,0,0,140,75,0,0,0.00,0.00,0.00,0.00,0.00,0,0,0,00006A35
18136,HOVER,UPD,1500,1500,1500,0,1000,1000,1000,0,0.00,0.00,0.00,0.00,0.00,0.00,0.00,0.00,0,0,0,0,0,0,0,0,0.00,0.00,0.00,0.00,0.00,100,400,500,0000361C
18157,HOVER,UPD,1500,1500,1500,0,1000,1000,1000,0,0.00,0.00,0.00,0.00,0.00,0.00,0.00,0.00,0,0,0,0,0,0,0,0,0.00,0.00,0.00,0.00,0.00,100,400,500,000085C2
18157,RECV,WR,996,993,993,-1410,173,173,173,-1464,0.00,0.00,0.00,0.00,0.00,0.00,0.00,0.00,0,0,0,0,0,0,0,0,0.00,0.00,0.00,0.00,0.00,0,0,0,00008F15
18185,RECV,WR,996,993,993,192,173,173,173,-1464,0.00,0.00,0.00,0.00,0.00,0.00,0.00,0.00,0,0,0,0,0,0,0,0,0.00,0.00,0.00,0.00,0.00,0,0,0,0000414C
18196,HOVER,UPD,1500,1500,1500,0,1000,1000,1000,0,0.00,0.00,0.00,0.00,0.00,0.00,0.00,0.00,0,0,0,0,0,0,0,0,0.00,0.00,0.00,0.00,0.00,100,400,500,0000ACA7
18196,SDIST,UPD,0,0,0,75,0,0,0,0,88.18,66.13,450.00,339.78,100.00,75.00,450.00,149.33,316,66,0,0,130,75,0,0,0.00,0.00,0.00,0.00,0.00,0,0,0,0000E4C2
18223,HOVER,UPD,1500,1500,1500,0,1000,1000,1000,0,0.00,0.00,0.00,0.00,0.00,0.00,0.00,0.00,0,0,0,0,0,0,0,0,0.00,0.00,0.00,0.00,0.00,100,400,500,00005845
18234,RECV,WR,996,993,993,-1410,173,173,173,-1464,0.00,0.00,0.00,0.00,0.00,0.00,0.00,0.00,0,0,0,0,0,0,0,0,0.00,0.00,0.00,0.00,0.00,0,0,0,0000C5D7
18249,RECV,WR,996,993,993,192,173,173,173,-1464,0.00,0.00,0.00,0.00,0.00,0.00,0.00,0.00,0,0,0,0,0,0,0,0,0.00,0.00,0.00,0.00,0.00,0,0,0,00003C94
18260,HOVER,UPD,1500,1500,1500,0,1000,1000,1000,0,0.00,0.00,0.00,0.00,0.00,0.00,0.00,0.00,0,0,0,0,0,0,0,0,0.00,0.00,0.00,0.00,0.00,100,400,500,00000D06
18276,SDIST,UPD,0,0,0,75,0,0,0,0,100.00,75.00,450.00,319.21,100.00,75.00,450.00,122.29,283,75,0,0,90,75,0,0,0.00,0.00,0.00,0.00,0.00,0,0,0,00002BE0
18287,RECV,WR,996,993,993,-1410,173,173,173,-1464,0.00,0.00,0.00,0.00,0.00,0.00,0.00,0.00,0,0,0,0,0,0,0,0,0.00,0.00,0.00,0.00,0.00,0,0,0,0000F259
18298,HOVER,UPD,1500,1500,1500,0,1000,1000,1000,0,0.00,0.00,0.00,0.00,0.00,0.00,0.00,0.00,0,0,0,0,0,0,0,0,0.00,0.00,0.00,0.00,0.00,100,400,500,0000EF91
18309,RECV,WR,996,993,993,192,173,173,173,-1464,0.00,0.00,0.00,0.00,0.00,0.00,0.00,0.00,0,0,0,0,0,0,0,0,0.00,0.00,0.00,0.00,0.00,0,0,0,000071D5
18335,HOVER,UPD,1500,1500,1500,0,1000,1000,1000,0,0.00,0.00,0.00,0.00,0.00,0.00,0.00,0.00,0,0,0,0,0,0,0,0,0.00,0.00,0.00,0.00,0.00,100,400,500,0000E5C1
18356,HOVER,UPD,1500,1500,1500,0,1000,1000,1000,0,0.00,0.00,0.00,0.00,0.00,0.00,0.00,0.00,0,0,0,0,0,0,0,0,0.00,0.00,0.00,0.00,0.00,100,400,500,00003D4F
18367,RECV,WR,996,993,993,-1410,173,173,173,-1464,0.00,0.00,0.00,0.00,0.00,0.00,0.00,0.00,0,0,0,0,0,0,0,0,0.00,0.00,0.00,0.00,0.00,0,0,0,00002612
18379,SDIST,UPD,0,0,0,75,0,0,0,0,100.00,75.00,450.00,307.78,100.00,75.00,450.00,111.17,293,75,0,0,100,75,0,0,0.00,0.00,0.00,0.00,0.00,0,0,0,00001CA0
18390,RECV,WR,996,993,993,192,173,173,173,-1464,0.00,0.00,0.00,0.00,0.00,0.00,0.00,0.00,0,0,0,0,0,0,0,0,0.00,0.00,0.00,0.00,0.00,0,0,0,0000EBD5
18401,HOVER,UPD,1500,1500,1500,0,1000,1000,1000,0,0.00,0.00,0.00,0.00,0.00,0.00,0.00,0.00,0,0,0,0,0,0,0,0,0.00,0.00,0.00,0.00,0.00,100,400,500,00003996
18432,HOVER,UPD,1500,1500,1500,0,1000,1000,1000,0,0.00,0.00,0.00,0.00,0.00,0.00,0.00,0.00,0,0,0,0,0,0,0,0,0.00,0.00,0.00,0.00,0.00,100,400,500,00002455
18434,RECV,WR,996,993,993,-1410,173,173,173,-1464,0.00,0.00,0.00,0.00,0.00,0.00,0.00,0.00,0,0,0,0,0,0,0,0,0.00,0.00,0.00,0.00,0.00,0,0,0,00005560
18458,RECV,WR,996,993,993,192,173,173,173,-1464,0.00,0.00,0.00,0.00,0.00,0.00,0.00,0.00,0,0,0,0,0,0,0,0,0.00,0.00,0.00,0.00,0.00,0,0,0,0000C0A1
18469,HOVER,UPD,1500,1500,1500,0,1000,1000,1000,0,0.00,0.00,0.00,0.00,0.00,0.00,0.00,0.00,0,0,0,0,0,0,0,0,0.00,0.00,0.00,0.00,0.00,100,400,500,00000281
18480,SDIST,UPD,0,0,0,75,0,0,0,0,100.00,75.00,450.00,314.65,100.00,75.00,450.00,114.87,325,75,0,0,120,75,0,0,0.00,0.00,0.00,0.00,0.00,0,0,0,00002DD2
18496,HOVER,UPD,1500,1500,1500,0,1000,1000,1000,0,0.00,0.00,0.00,0.00,0.00,0.00,0.00,0.00,0,0,0,0,0,0,0,0,0.00,0.00,0.00,0.00,0.00,100,400,500,0000684E
18507,RECV,WR,996,993,993,-1410,173,173,173,-1464,0.00,0.00,0.00,0.00,0.00,0.00,0.00,0.00,0,0,0,0,0,0,0,0,0.00,0.00,0.00,0.00,0.00,0,0,0,0000E44F
18522,RECV,WR,996,993,993,192,173,173,173,-1464,0.00,0.00,0.00,0.00,0.00,0.00,0.00,0.00,0,0,0,0,0,0,0,0,0.00,0.00,0.00,0.00,0.00,0,0,0,0000F90E
18533,HOVER,UPD,1500,1500,1500,0,1000,1000,1000,0,0.00,0.00,0.00,0.00,0.00,0.00,0.00,0.00,0,0,0,0,0,0,0,0,0.00,0.00,0.00,0.00,0.00,100,400,500,0000DF7F
18549,SDIST,UPD,0,0,0,75,0,0,0,0,97.56,73.17,450.00,328.05,100.00,75.00,450.00,139.68,353,73,0,0,190,75,0,0,0.00,0.00,0.00,0.00,0.00,0,0,0,00009204
18560,RECV,WR,996,993,993,-1410,173,173,173,-1464,0.00,0.00,0.00,0.00,0.00,0.00,0.00,0.00,0,0,0,0,0,0,0,0,0.00,0.00,0.00,0.00,0.00,0,0,0,0000AE7C
18571,HOVER,UPD,1500,1500,1500,0,1000,1000,1000,0,0.00,0.00,0.00,0.00,0.00,0.00,0.00,0.00,0,0,0,0,0,0,0,0,0.00,0.00,0.00,0.00,0.00,100,400,500,0000BF94
18582,RECV,WR,996,993,993,192,173,173,173,-1464,0.00,0.00,0.00,0.00,0.00,0.00,0.00,0.00,0,0,0,0,0,0,0,0,0.00,0.00,0.00,0.00,0.00,0,0,0,0000F17E
18608,HOVER,UPD,1500,1500,1500,0,1000,1000,1000,0,0.00,0.00,0.00,0.00,0.00,0.00,0.00,0.00,0,0,0,0,0,0,0,0,0.00,0.00,0.00,0.00,0.00,100,400,500,00003C7A
18629,HOVER,UPD,1500,1500,1500,0,1000,1000,1000,0,0.00,0.00,0.00,0.00,0.00,0.00,0.00,0.00,0,0,0,0,0,0,0,0,0.00,0.00,0.00,0.00,0.00,100,400,500,0000841F
18640,RECV,WR,996,993,993,-1410,173,173,173,-1464,0.00,0.00,0.00,0.00,0.00,0.00,0.00,0.00,0,0,0,0,0,0,0,0,0.00,0.00,0.00,0.00,0.00,0,0,0,00005F91
18656,HOVER,UPD,1500,1500,1500,0,1000,1000,1000,0,0.00,0.00,0.00,0.00,0.00,0.00,0.00,0.00,0,0,0,0,0,0,0,0,0.00,0.00,0.00,0.00,0.00,100,400,500,0000F9A6
18657,RECV,WR,996,993,993,192,173,173,173,-1464,0.00,0.00,0.00,0.00,0.00,0.00,0.00,0.00,0,0,0,0,0,0,0,0,0.00,0.00,0.00,0.00,0.00,0,0,0,0000EC79
18657,SDIST,UPD,0,0,0,75,0,0,0,0,83.53,62.65,450.00,345.59,100.00,75.00,450.00,166.98,374,62,0,0,200,75,0,0,0.00,0.00,0.00,0.00,0.00,0,0,0,00004990
18689,HOVER,UPD,1500,1500,1500,0,1000,1000,1000,0,0.00,0.00,0.00,0.00,0.00,0.00,0.00,0.00,0,0,0,0,0,0,0,0,0.00,0.00,0.00,0.00,0.00,100,400,500,00001EA4
18710,HOVER,UPD,1500,1500,1500,0,1000,1000,1000,0,0.00,0.00,0.00,0.00,0.00,0.00,0.00,0.00,0,0,0,0,0,0,0,0,0.00,0.00,0.00,0.00,0.00,100,400,500,0000816F
18710,RECV,WR,996,993,993,-1410,173,173,173,-1464,0.00,0.00,0.00,0.00,0.00,0.00,0.00,0.00,0,0,0,0,0,0,0,0,0.00,0.00,0.00,0.00,0.00,0,0,0,00006437
18738,RECV,WR,996,993,993,192,173,173,173,-1464,0.00,0.00,0.00,0.00,0.00,0.00,0.00,0.00,0,0,0,0,0,0,0,0,0.00,0.00,0.00,0.00,0.00,0,0,0,00001F12
18749,HOVER,UPD,1500,1500,1500,0,1000,1000,1000,0,0.00,0.00,0.00,0.00,0.00,0.00,0.00,0.00,0,0,0,0,0,0,0,0,0.00,0.00,0.00,0.00,0.00,100,400,500,0000CCEB
18749,SDIST,UPD,0,0,0,75,0,0,0,0,71.21,53.41,450.00,360.98,100.00,75.00,450.00,188.47,382,53,0,0,210,75,0,0,0.00,0.00,0.00,0.00,0.00,0,0,0,0000FA0B
18776,HOVER,UPD,1500,1500,1500,0,1000,1000,1000,0,0.00,0.00,0.00,0.00,0.00,0.00,0.00,0.00,0,0,0,0,0,0,0,0,0.00,0.00,0.00,0.00,0.00,100,400,500,0000BAE9
18787,RECV,WR,996,993,993,-1410,173,173,173,-1464,0.00,0.00,0.00,0.00,0.00,0.00,0.00,0.00,0,0,0,0,0,0,0,0,0.00,0.00,0.00,0.00,0.00,0,0,0,0000A2A5
18802,RECV,WR,996,993,993,192,173,173,173,-1464,0.00,0.00,0.00,0.00,0.00,0.00,0.00,0.00,0,0,0,0,0,0,0,0,0.00,0.00,0.00,0.00,0.00,0,0,0,0000E270
18813,HOVER,UPD,1500,1500,1500,0,1000,1000,1000,0,0.00,0.00,0.00,0.00,0.00,0.00,0.00,0.00,0,0,0,0,0,0,0,0,0.00,0.00,0.00,0.00,0.00,100,400,500,0000828D
18829,SDIST,UPD,0,0,0,75,0,0,0,0,62.43,46.82,450.00,371.97,100.00,75.00,450.00,203.66,387,46,0,0,220,75,0,0,0.00,0.00,0.00,0.00,0.00,0,0,0,0000E449
18840,RECV,WR,996,993,993,-1410,173,173,173,-1464,0.00,0.00,0.00,0.00,0.00,0.00,0.00,0.00,0,0,0,0,0,0,0,0,0.00,0.00,0.00,0.00,0.00,0,0,0,0000EEAC
18851,HOVER,UPD,1500,1500,1500,0,1000,1000,1000,0,0.00,0.00,0.00,0.00,0.00,0.00,0.00,0.00,0,0,0,0,0,0,0,0,0.00,0.00,0.00,0.00,0.00,100,400,500,0000E266
18862,RECV,WR,996,993,993,192,173,173,173,-1464,0.00,0.00,0.00,0.00,0.00,0.00,0.00,0.00,0,0,0,0,0,0,0,0,0.00,0.00,0.00,0.00,0.00,0,0,0,0000E5A0
18888,HOVER,UPD,1500,1500,1500,0,1000,1000,1000,0,0.00,0.00,0.00,0.00,0.00,0.00,0.00,0.00,0,0,0,0,0,0,0,0,0.00,0.00,0.00,0.00,0.00,100,400,500,0000B894
18909,HOVER,UPD,1500,1500,1500,0,1000,1000,1000,0,0.00,0.00,0.00,0.00,0.00,0.00,0.00,0.00,0,0,0,0,0,0,0,0,0.00,0.00,0.00,0.00,0.00,100,400,500,000054C8
18920,RECV,WR,996,993,993,-1410,173,173,173,-1464,0.00,0.00,0.00,0.00,0.00,0.00,0.00,0.00,0,0,0,0,0,0,0,0,0.00,0.00,0.00,0.00,0.00,0,0,0,0000FC7F
18932,SDIST,UPD,0,0,0,75,0,0,0,0,57.41,43.06,450.00,378.23,100.00,75.00,450.00,215.25,388,43,0,0,230,75,0,0,0.00,0.00,0.00,0.00,0.00,0,0,0,00007E09
18943,RECV,WR,996,993,993,192,173,173,173,-1464,0.00,0.00,0.00,0.00,0.00,0.00,0.00,0.00,0,0,0,0,0,0,0,0,0.00,0.00,0.00,0.00,0.00,0,0,0,000002A4
18954,HOVER,UPD,1500,1500,1500,0,1000,1000,1000,0,0.00,0.00,0.00,0.00,0.00,0.00,0.00,0.00,0,0,0,0,0,0,0,0,0.00,0.00,0.00,0.00,0.00,100,400,500,0000CFEC
18985,HOVER,UPD,1500,1500,1500,0,1000,1000,1000,0,0.00,0.00,0.00,0.00,0.00,0.00,0.00,0.00,0,0,0,0,0,0,0,0,0.00,0.00,0.00,0.00,0.00,100,400,500,0000287F
18987,RECV,WR,996,993,993,-1410,173,173,173,-1464,0.00,0.00,0.00,0.00,0.00,0.00,0.00,0.00,0,0,0,0,0,0,0,0,0.00,0.00,0.00,0.00,0.00,0,0,0,00001398
19011,RECV,WR,996,993,993,192,173,173,173,-1464,0.00,0.00,0.00,0.00,0.00,0.00,0.00,0.00,0,0,0,0,0,0,0,0,0.00,0.00,0.00,0.00,0.00,0,0,0,00007C2F
19022,HOVER,UPD,1500,1500,1500,0,1000,1000,1000,0,0.00,0.00,0.00,0.00,0.00,0.00,0.00,0.00,0,0,0,0,0,0,0,0,0.00,0.00,0.00,0.00,0.00,100,400,500,00005A4A
19033,SDIST,UPD,0,0,0,75,0,0,0,0,55.57,41.68,450.00,380.54,100.00,75.00,450.00,221.18,385,41,0,0,230,75,0,0,0.00,0.00,0.00,0.00,0.00,0,0,0,0000665E
19049,HOVER,UPD,1500,1500,1500,0,1000,1000,1000,0,0.00,0.00,0.00,0.00,0.00,0.00,0.00,0.00,0,0,0,0,0,0,0,0,0.00,0.00,0.00,0.00,0.00,100,400,500,00003FA5
19060,RECV,WR,996,993,993,-1410,173,173,173,-1464,0.00,0.00,0.00,0.00,0.00,0.00,0.00,0.00,0,0,0,0,0,0,0,0,0.00,0.00,0.00,0.00,0.00,0,0,0,00008F44
19075,RECV,WR,996,993,993,192,173,173,173,-1464,0.00,0.00,0.00,0.00,0.00,0.00,0.00,0.00,0,0,0,0,0,0,0,0,0.00,0.00,0.00,0.00,0.00,0,0,0,0000EDE9
19086,HOVER,UPD,1500,1500,1500,0,1000,1000,1000,0,0.00,0.00,0.00,0.00,0.00,0.00,0.00,0.00,0,0,0,0,0,0,0,0,0.00,0.00,0.00,0.00,0.00,100,400,500,00001651
19102,SDIST,UPD,0,0,0,75,0,0,0,0,54.13,40.60,450.00,382.34,100.00,75.00,450.00,234.46,387,40,0,0,260,75,0,0,0.00,0.00,0.00,0.00,0.00,0,0,0,00007F5F
19113,RECV,WR,996,993,993,-1410,173,173,173,-1464,0.00,0.00,0.00,0.00,0.00,0.00,0.00,0.00,0,0,0,0,0,0,0,0,0.00,0.00,0.00,0.00,0.00,0,0,0,00005D27
19124,HOVER,UPD,1500,1500,1500,0,1000,1000,1000,0,0.00,0.00,0.00,0.00,0.00,0.00,0.00,0.00,0,0,0,0,0,0,0,0,0.00,0.00,0.00,0.00,0.00,100,400,500,00002938
19135,RECV,WR,996,993,993,192,173,173,173,-1464,0.00,0.00,0.00,0.00,0.00,0.00,0.00,0.00,0,0,0,0,0,0,0,0,0.00,0.00,0.00,0.00,0.00,0,0,0,0000A0A8
19161,HOVER,UPD,1500,1500,1500,0,1000,1000,1000,0,0.00,0.00,0.00,0.00,0.00,0.00,0.00,0.00,0,0,0,0,0,0,0,0,0.00,0.00,0.00,0.00,0.00,100,400,500,0000C18B
19182,HOVER,UPD,1500,1500,1500,0,1000,1000,1000,0,0.00,0.00,0.00,0.00,0.00,0.00,0.00,0.00,0,0,0,0,0,0,0,0,0.00,0.00,0.00,0.00,0.00,100,400,500,00000E73
19193,RECV,WR,996,993,993,-1410,173,173,173,-1464,0.00,0.00,0.00,0.00,0.00,0.00,0.00,0.00,0,0,0,0,0,0,0,0,0.00,0.00,0.00,0.00,0.00,0,0,0,00009BBF
